{
"type": "FeatureCollection",
"name": "Town_Facilities",
"crs": { "type": "name", "properties": { "name": "urn:ogc:def:crs:OGC:1.3:CRS84" } },
"features": [
{ "type": "Feature", "properties": { "FID": 1, "NAME": "Randall Street \/ Reynolds Street Parking Lot #8", "ADDRESS": "334 Randall St", "DESCRIPTIO": "Parking Lot" }, "geometry": { "type": "Point", "coordinates": [ -79.666744574232894, 43.449204086253303 ] } },
{ "type": "Feature", "properties": { "FID": 2, "NAME": "Robinson Street \/ Dunn Street Parking Lot 5", "ADDRESS": " ", "DESCRIPTIO": "Parking Lot" }, "geometry": { "type": "Point", "coordinates": [ -79.666048479573803, 43.446161652178603 ] } },
{ "type": "Feature", "properties": { "FID": 3, "NAME": "Thomas Street Parking Lot #16", "ADDRESS": "91 Thomas Street", "DESCRIPTIO": "Parking Lot" }, "geometry": { "type": "Point", "coordinates": [ -79.668407581517798, 43.444806268759997 ] } },
{ "type": "Feature", "properties": { "FID": 4, "NAME": "Robinson Street\/ Navy Street Parking Lot #15", "ADDRESS": "141 Robinson Street", "DESCRIPTIO": "Parking Lot" }, "geometry": { "type": "Point", "coordinates": [ -79.669057666622294, 43.444037554401703 ] } },
{ "type": "Feature", "properties": { "FID": 5, "NAME": "Randall Street Parking Lot #6a", "ADDRESS": "186 Randall St", "DESCRIPTIO": "Parking Lot" }, "geometry": { "type": "Point", "coordinates": [ -79.669891017172901, 43.446364649819301 ] } },
{ "type": "Feature", "properties": { "FID": 6, "NAME": "Washington Avenue \/ Florence Street Parking Lot #12", "ADDRESS": "72 Washington Avenue", "DESCRIPTIO": "Parking Lot" }, "geometry": { "type": "Point", "coordinates": [ -79.681364336144895, 43.4444429476276 ] } },
{ "type": "Feature", "properties": { "FID": 7, "NAME": "Emily Cline Park Playground", "ADDRESS": "3170 Trailside Drive", "DESCRIPTIO": "Playground" }, "geometry": { "type": "Point", "coordinates": [ -79.748141847523399, 43.470476835238003 ] } },
{ "type": "Feature", "properties": { "FID": 8, "NAME": "Emily Cline Park Gazebo", "ADDRESS": "3170 Trailside Drive", "DESCRIPTIO": "Gazebo" }, "geometry": { "type": "Point", "coordinates": [ -79.748172990191904, 43.470595668521703 ] } },
{ "type": "Feature", "properties": { "FID": 9, "NAME": "Ecole Forest Trail Public School Playground", "ADDRESS": "150 Ridge Drive", "DESCRIPTIO": "Playground" }, "geometry": { "type": "Point", "coordinates": [ -79.7520937144144, 43.450495542962003 ] } },
{ "type": "Feature", "properties": { "FID": 10, "NAME": "Palermo Public School Playground", "ADDRESS": "2345 Dundas Street West", "DESCRIPTIO": "Playground" }, "geometry": { "type": "Point", "coordinates": [ -79.775099701658206, 43.432256505451797 ] } },
{ "type": "Feature", "properties": { "FID": 11, "NAME": "South Shell Park Playground", "ADDRESS": "3376 Lakeshore Road West", "DESCRIPTIO": "Playground" }, "geometry": { "type": "Point", "coordinates": [ -79.717996647432997, 43.376201588935402 ] } },
{ "type": "Feature", "properties": { "FID": 12, "NAME": "Kingsford Gardens Playground", "ADDRESS": "2667 Kingsway Dr", "DESCRIPTIO": "Playground" }, "geometry": { "type": "Point", "coordinates": [ -79.664191538925394, 43.493778703676298 ] } },
{ "type": "Feature", "properties": { "FID": 13, "NAME": "Kingsford Gardens Hockey Court", "ADDRESS": "2667 Kingsway Dr", "DESCRIPTIO": "Hockey Court" }, "geometry": { "type": "Point", "coordinates": [ -79.6644415702782, 43.493754231909698 ] } },
{ "type": "Feature", "properties": { "FID": 14, "NAME": "Kingsford Gardens Basketball Court", "ADDRESS": "2667 Kingsway Dr", "DESCRIPTIO": "Basketball Court" }, "geometry": { "type": "Point", "coordinates": [ -79.664437600954301, 43.493981521926599 ] } },
{ "type": "Feature", "properties": { "FID": 15, "NAME": "Kingsford Gardens Shade Pavillion", "ADDRESS": "2667 Kingsway Dr", "DESCRIPTIO": "Shade Pavilion" }, "geometry": { "type": "Point", "coordinates": [ -79.664124306903801, 43.493907572639998 ] } },
{ "type": "Feature", "properties": { "FID": 16, "NAME": "Maple Grove Public School Playground", "ADDRESS": "288 Maple Grove Dr", "DESCRIPTIO": "Playground" }, "geometry": { "type": "Point", "coordinates": [ -79.652005114675902, 43.472924542315504 ] } },
{ "type": "Feature", "properties": { "FID": 17, "NAME": "E. J. James Public School Playground", "ADDRESS": "338 Cairncroft Rd", "DESCRIPTIO": "Playground" }, "geometry": { "type": "Point", "coordinates": [ -79.658563181103503, 43.468046355693197 ] } },
{ "type": "Feature", "properties": { "FID": 18, "NAME": "New Central Public School Playground", "ADDRESS": "133 Balsam Dr", "DESCRIPTIO": "Playground" }, "geometry": { "type": "Point", "coordinates": [ -79.661824598844404, 43.454246622501898 ] } },
{ "type": "Feature", "properties": { "FID": 19, "NAME": "W H Morden Public School Playground", "ADDRESS": "180 Morden Dr", "DESCRIPTIO": "Playground" }, "geometry": { "type": "Point", "coordinates": [ -79.686745175714805, 43.434438332560397 ] } },
{ "type": "Feature", "properties": { "FID": 20, "NAME": "Post Corners Public School Playground", "ADDRESS": "2220 Caldwell Drive", "DESCRIPTIO": "Playground" }, "geometry": { "type": "Point", "coordinates": [ -79.715350916859606, 43.4757907462132 ] } },
{ "type": "Feature", "properties": { "FID": 21, "NAME": "Captain R. Wilson Public School Playground", "ADDRESS": "2145 Grand Oak Trail", "DESCRIPTIO": "Playground" }, "geometry": { "type": "Point", "coordinates": [ -79.758638088485895, 43.429682900586201 ] } },
{ "type": "Feature", "properties": { "FID": 22, "NAME": "Joshua Valley Park Information Kiosk", "ADDRESS": "2477 Armiger Lane", "DESCRIPTIO": "Information Kiosk" }, "geometry": { "type": "Point", "coordinates": [ -79.629281843974496, 43.482054273624499 ] } },
{ "type": "Feature", "properties": { "FID": 23, "NAME": "Crosstown Trail Information Kiosk", "ADDRESS": " ", "DESCRIPTIO": "Information Kiosk" }, "geometry": { "type": "Point", "coordinates": [ -79.721807827176605, 43.470707191309998 ] } },
{ "type": "Feature", "properties": { "FID": 24, "NAME": "George's Square Information Kiosk", "ADDRESS": "179 Trafalgar Rd", "DESCRIPTIO": "Information Kiosk" }, "geometry": { "type": "Point", "coordinates": [ -79.669232977874898, 43.4491947052678 ] } },
{ "type": "Feature", "properties": { "FID": 25, "NAME": "Market Square Information Pergula", "ADDRESS": "54 Navy Street", "DESCRIPTIO": "Information Kiosk" }, "geometry": { "type": "Point", "coordinates": [ -79.668331414341594, 43.442968747824096 ] } },
{ "type": "Feature", "properties": { "FID": 26, "NAME": "James W Hill Public School Playground", "ADDRESS": "2860 Kingsway Drive", "DESCRIPTIO": "Playground" }, "geometry": { "type": "Point", "coordinates": [ -79.660355577580503, 43.501232052265102 ] } },
{ "type": "Feature", "properties": { "FID": 27, "NAME": "Nautical Park Basketball Court", "ADDRESS": "355 Nautical Blvd", "DESCRIPTIO": "Basketball Court" }, "geometry": { "type": "Point", "coordinates": [ -79.727811432156102, 43.386683938545502 ] } },
{ "type": "Feature", "properties": { "FID": 28, "NAME": "Nautical Park Utility", "ADDRESS": "355 Nautical Blvd", "DESCRIPTIO": "Utility" }, "geometry": { "type": "Point", "coordinates": [ -79.727209306489598, 43.386405803985298 ] } },
{ "type": "Feature", "properties": { "FID": 29, "NAME": "Nautical Park Shade Pavilion", "ADDRESS": "355 Nautical Blvd", "DESCRIPTIO": "Shade Pavilion" }, "geometry": { "type": "Point", "coordinates": [ -79.727459088808104, 43.386398449609402 ] } },
{ "type": "Feature", "properties": { "FID": 30, "NAME": "Maitland Pond Shade Pavilion", "ADDRESS": " ", "DESCRIPTIO": "Shade Pavilion" }, "geometry": { "type": "Point", "coordinates": [ -79.725263188095198, 43.458893345819902 ] } },
{ "type": "Feature", "properties": { "FID": 31, "NAME": "Shell Park East Parking Lot", "ADDRESS": "3307 Lakeshore Rd W", "DESCRIPTIO": "Parking Lot" }, "geometry": { "type": "Point", "coordinates": [ -79.719698981883795, 43.3815128586022 ] } },
{ "type": "Feature", "properties": { "FID": 32, "NAME": "Coronation Park Picnic Area - B", "ADDRESS": "1426 Lakeshore Rd W", "DESCRIPTIO": "Picnic Area" }, "geometry": { "type": "Point", "coordinates": [ -79.692115709541099, 43.408913334178898 ] } },
{ "type": "Feature", "properties": { "FID": 33, "NAME": "South Shell Park Gazebo", "ADDRESS": "3376 Lakeshore Road West", "DESCRIPTIO": "Gazebo" }, "geometry": { "type": "Point", "coordinates": [ -79.718634599925693, 43.376883590735503 ] } },
{ "type": "Feature", "properties": { "FID": 34, "NAME": "South Shell Park Gazebo", "ADDRESS": "3376 Lakeshore Road West", "DESCRIPTIO": "Gazebo" }, "geometry": { "type": "Point", "coordinates": [ -79.719751313936996, 43.374186579960202 ] } },
{ "type": "Feature", "properties": { "FID": 35, "NAME": "Valleyridge Park Shade Pavillion", "ADDRESS": "2524 Valleyridge Drive", "DESCRIPTIO": "Shade Pavilion" }, "geometry": { "type": "Point", "coordinates": [ -79.7758214769501, 43.430223543710703 ] } },
{ "type": "Feature", "properties": { "FID": 36, "NAME": "Creek Path Woods Shade Pavilion", "ADDRESS": "267 Creek Path Ave", "DESCRIPTIO": "Shade Pavilion" }, "geometry": { "type": "Point", "coordinates": [ -79.731459100122507, 43.3796974458335 ] } },
{ "type": "Feature", "properties": { "FID": 37, "NAME": "Coronation Picnic Area - D", "ADDRESS": "1426 Lakeshore Rd W", "DESCRIPTIO": "Picnic Area" }, "geometry": { "type": "Point", "coordinates": [ -79.691811838399403, 43.406199018150197 ] } },
{ "type": "Feature", "properties": { "FID": 38, "NAME": "Nottinghill Park Shade Pavilion", "ADDRESS": "1150 Nottinghill Gate", "DESCRIPTIO": "Shade Pavilion" }, "geometry": { "type": "Point", "coordinates": [ -79.720500747720294, 43.439591339595999 ] } },
{ "type": "Feature", "properties": { "FID": 39, "NAME": "Sixteen Hollow Shade Pavilion", "ADDRESS": "2140 Westoak Trails", "DESCRIPTIO": "Shade Pavilion" }, "geometry": { "type": "Point", "coordinates": [ -79.734094209706697, 43.452721273473799 ] } },
{ "type": "Feature", "properties": { "FID": 40, "NAME": "Prserve Promenade Shade Structure", "ADDRESS": " ", "DESCRIPTIO": "Shade Pavilion" }, "geometry": { "type": "Point", "coordinates": [ -79.736289451298504, 43.474571909551997 ] } },
{ "type": "Feature", "properties": { "FID": 41, "NAME": "Preserve Promenade Shade Pavilion", "ADDRESS": " ", "DESCRIPTIO": "Shade Pavilion" }, "geometry": { "type": "Point", "coordinates": [ -79.737038037313994, 43.473946986426697 ] } },
{ "type": "Feature", "properties": { "FID": 42, "NAME": "Preserve Promenade Trellis", "ADDRESS": " ", "DESCRIPTIO": "Shade Pavilion" }, "geometry": { "type": "Point", "coordinates": [ -79.738090736786205, 43.472961505108799 ] } },
{ "type": "Feature", "properties": { "FID": 43, "NAME": "Ortona Park Senior Playground", "ADDRESS": "290 Ortona Gate", "DESCRIPTIO": "Playground" }, "geometry": { "type": "Point", "coordinates": [ -79.684141852014307, 43.436995452065297 ] } },
{ "type": "Feature", "properties": { "FID": 44, "NAME": "Ortona Park Junior Playground", "ADDRESS": "290 Ortona Gate", "DESCRIPTIO": "Playground" }, "geometry": { "type": "Point", "coordinates": [ -79.683940045864105, 43.4371395038659 ] } },
{ "type": "Feature", "properties": { "FID": 45, "NAME": "Ortona Park Shade Structure", "ADDRESS": "290 Ortona Gate", "DESCRIPTIO": "Shade Pavilion" }, "geometry": { "type": "Point", "coordinates": [ -79.683917093140593, 43.436989683277901 ] } },
{ "type": "Feature", "properties": { "FID": 46, "NAME": "Palermo Cemetery Parking", "ADDRESS": "2430 Dundas Street West", "DESCRIPTIO": "Parking Lot" }, "geometry": { "type": "Point", "coordinates": [ -79.772581916231999, 43.4376559069783 ] } },
{ "type": "Feature", "properties": { "FID": 47, "NAME": "Issac Park Shade Pavilion", "ADDRESS": "3086 Issac Avenue", "DESCRIPTIO": "Shade Pavilion" }, "geometry": { "type": "Point", "coordinates": [ -79.733920586578805, 43.479923919477301 ] } },
{ "type": "Feature", "properties": { "FID": 48, "NAME": "Issac Park Covered Seating", "ADDRESS": "3086 Issac Avenue", "DESCRIPTIO": "Covered Seating" }, "geometry": { "type": "Point", "coordinates": [ -79.733860516817302, 43.479603450464303 ] } },
{ "type": "Feature", "properties": { "FID": 49, "NAME": "Issac Park Utility Building", "ADDRESS": "3086 Issac Avenue", "DESCRIPTIO": "Utility" }, "geometry": { "type": "Point", "coordinates": [ -79.734254835359707, 43.479416038175302 ] } },
{ "type": "Feature", "properties": { "FID": 50, "NAME": "Issac Park Washroom", "ADDRESS": "3086 Issac Avenue", "DESCRIPTIO": "Washroom" }, "geometry": { "type": "Point", "coordinates": [ -79.734623846129594, 43.479209087778202 ] } },
{ "type": "Feature", "properties": { "FID": 51, "NAME": "Issac Park Shade Pavilion", "ADDRESS": "3086 Issac Avenue", "DESCRIPTIO": "Shade Pavilion" }, "geometry": { "type": "Point", "coordinates": [ -79.735155312060897, 43.4786649001 ] } },
{ "type": "Feature", "properties": { "FID": 52, "NAME": "Issac Park Soccer Field 2", "ADDRESS": "3086 Issac Avenue", "DESCRIPTIO": "Soccer - Major" }, "geometry": { "type": "Point", "coordinates": [ -79.733834478491801, 43.478919798498801 ] } },
{ "type": "Feature", "properties": { "FID": 53, "NAME": "Postridge Park Soccer Field", "ADDRESS": "400 Postridge Dr", "DESCRIPTIO": "Soccer - Mini" }, "geometry": { "type": "Point", "coordinates": [ -79.711255577505597, 43.487387718640399 ] } },
{ "type": "Feature", "properties": { "FID": 54, "NAME": "Postridge Park Hardball Diamond", "ADDRESS": "400 Postridge Dr", "DESCRIPTIO": "Hardball - Youth" }, "geometry": { "type": "Point", "coordinates": [ -79.711982427496906, 43.488262491696602 ] } },
{ "type": "Feature", "properties": { "FID": 55, "NAME": "Postridge Park Playground", "ADDRESS": "400 Postridge Dr", "DESCRIPTIO": "Playground" }, "geometry": { "type": "Point", "coordinates": [ -79.712365033461097, 43.486945264439598 ] } },
{ "type": "Feature", "properties": { "FID": 56, "NAME": "Postridge Park Playground", "ADDRESS": "400 Postridge Dr", "DESCRIPTIO": "Playground" }, "geometry": { "type": "Point", "coordinates": [ -79.712239391890904, 43.4871395105354 ] } },
{ "type": "Feature", "properties": { "FID": 57, "NAME": "Postridge Park Parking Lot", "ADDRESS": "400 Postridge Dr", "DESCRIPTIO": "Parking Lot" }, "geometry": { "type": "Point", "coordinates": [ -79.712562956347995, 43.488313610318002 ] } },
{ "type": "Feature", "properties": { "FID": 58, "NAME": "Postridge Park Shade Pavilion", "ADDRESS": "400 Postridge Dr", "DESCRIPTIO": "Shade Pavilion" }, "geometry": { "type": "Point", "coordinates": [ -79.712267265504096, 43.487033253053497 ] } },
{ "type": "Feature", "properties": { "FID": 59, "NAME": "Postridge Park Utility", "ADDRESS": "400 Postridve Dr", "DESCRIPTIO": "Utility" }, "geometry": { "type": "Point", "coordinates": [ -79.712375610095904, 43.486641476086703 ] } },
{ "type": "Feature", "properties": { "FID": 60, "NAME": "Shell Park Pergola", "ADDRESS": "3307 Lakeshore Rd W", "DESCRIPTIO": "Shade Pavilion" }, "geometry": { "type": "Point", "coordinates": [ -79.718449041840799, 43.379738635093602 ] } },
{ "type": "Feature", "properties": { "FID": 61, "NAME": "Isaac Park Soccer Field 1", "ADDRESS": "3086 Issac Avenue", "DESCRIPTIO": "Soccer - Major" }, "geometry": { "type": "Point", "coordinates": [ -79.734519406804097, 43.478259997280801 ] } },
{ "type": "Feature", "properties": { "FID": 62, "NAME": "Isaac Park Playground", "ADDRESS": "3086 Isaac Avenue", "DESCRIPTIO": "Playground" }, "geometry": { "type": "Point", "coordinates": [ -79.734081962588206, 43.479670352572498 ] } },
{ "type": "Feature", "properties": { "FID": 63, "NAME": "Old Abbey Park Basketball Court", "ADDRESS": "1110 Old Abbey Lane", "DESCRIPTIO": "Basketball Court" }, "geometry": { "type": "Point", "coordinates": [ -79.710731945483701, 43.444549121637898 ] } },
{ "type": "Feature", "properties": { "FID": 64, "NAME": "Greenery Parkette Shelter\r\n", "ADDRESS": "2442  The Promenade", "DESCRIPTIO": "Shade Pavilion" }, "geometry": { "type": "Point", "coordinates": [ -79.722715873751, 43.47306045341 ] } },
{ "type": "Feature", "properties": { "FID": 65, "NAME": "Greenery Parkette Trellis", "ADDRESS": "2442  The Promenade\r\n", "DESCRIPTIO": "Shade Pavilion" }, "geometry": { "type": "Point", "coordinates": [ -79.722442190433895, 43.473086129109099 ] } },
{ "type": "Feature", "properties": { "FID": 66, "NAME": "Harman Gate Park Trellis", "ADDRESS": "186 River Glen Blvd", "DESCRIPTIO": "Shade Pavilion" }, "geometry": { "type": "Point", "coordinates": [ -79.7315453102145, 43.472501113818403 ] } },
{ "type": "Feature", "properties": { "FID": 67, "NAME": "Glenashton Park Parking Lot", "ADDRESS": "1051 Glenashton Drive", "DESCRIPTIO": "Parking Lot" }, "geometry": { "type": "Point", "coordinates": [ -79.703864086570405, 43.488146503981902 ] } },
{ "type": "Feature", "properties": { "FID": 68, "NAME": "Holton Heights Park Utility", "ADDRESS": "1315 Holton Heights Dr", "DESCRIPTIO": "Utility" }, "geometry": { "type": "Point", "coordinates": [ -79.689421937524997, 43.473459171888997 ] } },
{ "type": "Feature", "properties": { "FID": 69, "NAME": "Memorial Park Utility", "ADDRESS": "120 Oak Park Blvd", "DESCRIPTIO": "Utility" }, "geometry": { "type": "Point", "coordinates": [ -79.721455759166801, 43.481545186006898 ] } },
{ "type": "Feature", "properties": { "FID": 70, "NAME": "Westwood Park Utility", "ADDRESS": "170 Wilson Street", "DESCRIPTIO": "Utility" }, "geometry": { "type": "Point", "coordinates": [ -79.676419380774902, 43.441892522965198 ] } },
{ "type": "Feature", "properties": { "FID": 71, "NAME": "Valleyridge Park Utility", "ADDRESS": "2524 Valleyridge Drive", "DESCRIPTIO": "Utility" }, "geometry": { "type": "Point", "coordinates": [ -79.775809695097493, 43.430001040709698 ] } },
{ "type": "Feature", "properties": { "FID": 72, "NAME": "Sixteen Hollow Park Utility", "ADDRESS": "2140 Westoak Trails", "DESCRIPTIO": "Utility" }, "geometry": { "type": "Point", "coordinates": [ -79.733841026951595, 43.452855442675997 ] } },
{ "type": "Feature", "properties": { "FID": 73, "NAME": "Nottinghill Park Utility", "ADDRESS": "1150 Nottinghill Gate", "DESCRIPTIO": "Utility" }, "geometry": { "type": "Point", "coordinates": [ -79.720769052112402, 43.439781900753999 ] } },
{ "type": "Feature", "properties": { "FID": 74, "NAME": "Neyagawa Park Utility", "ADDRESS": "540 River Glen Blvd", "DESCRIPTIO": "Utility" }, "geometry": { "type": "Point", "coordinates": [ -79.736090338577796, 43.461532012070101 ] } },
{ "type": "Feature", "properties": { "FID": 75, "NAME": "Millbank Park Utility", "ADDRESS": "166 Glenashton Dr", "DESCRIPTIO": "Utility" }, "geometry": { "type": "Point", "coordinates": [ -79.717826875364295, 43.474979540852701 ] } },
{ "type": "Feature", "properties": { "FID": 76, "NAME": "Heritage Way Park Utility", "ADDRESS": "1659 Heritage Way", "DESCRIPTIO": "Utility" }, "geometry": { "type": "Point", "coordinates": [ -79.740852905341399, 43.431125690367999 ] } },
{ "type": "Feature", "properties": { "FID": 77, "NAME": "Coronation Park Utility", "ADDRESS": "1426 Lakeshore Rd W", "DESCRIPTIO": "Utility" }, "geometry": { "type": "Point", "coordinates": [ -79.693781223332095, 43.407425231958399 ] } },
{ "type": "Feature", "properties": { "FID": 78, "NAME": "Munn's Creek Park Utility", "ADDRESS": "153 River Oaks Blvd W", "DESCRIPTIO": "Utility" }, "geometry": { "type": "Point", "coordinates": [ -79.720953162384404, 43.465584306093398 ] } },
{ "type": "Feature", "properties": { "FID": 79, "NAME": "Old Abbey Park Utility", "ADDRESS": "1110 Old Abbey Lane", "DESCRIPTIO": "Utility" }, "geometry": { "type": "Point", "coordinates": [ -79.710437563365204, 43.445090579833298 ] } },
{ "type": "Feature", "properties": { "FID": 80, "NAME": "Pine Glen Park Utility", "ADDRESS": "1482- 1520  Pine Glen Rd", "DESCRIPTIO": "Utility" }, "geometry": { "type": "Point", "coordinates": [ -79.755033023807897, 43.4485760561437 ] } },
{ "type": "Feature", "properties": { "FID": 81, "NAME": "Valleybrook Park Utility", "ADDRESS": "1150 Valleybrook Dr", "DESCRIPTIO": "Utility" }, "geometry": { "type": "Point", "coordinates": [ -79.693347672185894, 43.487486383445699 ] } },
{ "type": "Feature", "properties": { "FID": 82, "NAME": "West Oak Park Utility", "ADDRESS": "2860 Westoak Trails Blvd.", "DESCRIPTIO": "Utility" }, "geometry": { "type": "Point", "coordinates": [ -79.755292780811004, 43.432610027951903 ] } },
{ "type": "Feature", "properties": { "FID": 83, "NAME": "River Oaks Park Utility", "ADDRESS": "2400 Sixth Line", "DESCRIPTIO": "Utility" }, "geometry": { "type": "Point", "coordinates": [ -79.724488968920696, 43.470452130556097 ] } },
{ "type": "Feature", "properties": { "FID": 84, "NAME": "Bronte Heritage Park Utility", "ADDRESS": "2340 Ontario St", "DESCRIPTIO": "Utility" }, "geometry": { "type": "Point", "coordinates": [ -79.707026347092693, 43.3943059204747 ] } },
{ "type": "Feature", "properties": { "FID": 85, "NAME": "North Park Utility", "ADDRESS": "3250 Neyagawa Blvd", "DESCRIPTIO": "Utility" }, "geometry": { "type": "Point", "coordinates": [ -79.752307877081606, 43.4675408638861 ] } },
{ "type": "Feature", "properties": { "FID": 86, "NAME": "Glen Abbey Park Utility", "ADDRESS": "1415 Third Line", "DESCRIPTIO": "Utility" }, "geometry": { "type": "Point", "coordinates": [ -79.739401854261502, 43.437057942494398 ] } },
{ "type": "Feature", "properties": { "FID": 87, "NAME": "Glenashton Park Utility", "ADDRESS": "1051 Glenashton Drive", "DESCRIPTIO": "Utility" }, "geometry": { "type": "Point", "coordinates": [ -79.701379856112595, 43.487311999514397 ] } },
{ "type": "Feature", "properties": { "FID": 88, "NAME": "Sovereign Park Parking Lot", "ADDRESS": "141 East St", "DESCRIPTIO": "Parking Lot" }, "geometry": { "type": "Point", "coordinates": [ -79.708309413089793, 43.399960844916201 ] } },
{ "type": "Feature", "properties": { "FID": 89, "NAME": "Memorial Park Playground", "ADDRESS": "120 Oak Park Blvd", "DESCRIPTIO": "Playground" }, "geometry": { "type": "Point", "coordinates": [ -79.721960132695997, 43.480140977706398 ] } },
{ "type": "Feature", "properties": { "FID": 90, "NAME": "Memorial Park Playground", "ADDRESS": "120 Oak Park Blvd", "DESCRIPTIO": "Playground" }, "geometry": { "type": "Point", "coordinates": [ -79.722095804664804, 43.480358064067701 ] } },
{ "type": "Feature", "properties": { "FID": 91, "NAME": "Pelee Woods Park Basketball Court", "ADDRESS": "97 River Oaks Blvd E", "DESCRIPTIO": "Basketball Court" }, "geometry": { "type": "Point", "coordinates": [ -79.715237038548395, 43.471962567708097 ] } },
{ "type": "Feature", "properties": { "FID": 92, "NAME": "Sunningdale Ps Softball - Youth", "ADDRESS": "1406 Oxford Ave", "DESCRIPTIO": "Softball - Youth" }, "geometry": { "type": "Point", "coordinates": [ -79.712709666392499, 43.4578552635299 ] } },
{ "type": "Feature", "properties": { "FID": 93, "NAME": "Woodside Branch Library", "ADDRESS": "1274 Rebecca St", "DESCRIPTIO": "Library" }, "geometry": { "type": "Point", "coordinates": [ -79.698469221887507, 43.417415457304799 ] } },
{ "type": "Feature", "properties": { "FID": 94, "NAME": "Oakville Town Hall", "ADDRESS": "1225 Trafalgar Rd", "DESCRIPTIO": "Municipal Offices" }, "geometry": { "type": "Point", "coordinates": [ -79.687847886415597, 43.467235159767199 ] } },
{ "type": "Feature", "properties": { "FID": 95, "NAME": "Lions Pool", "ADDRESS": "159 Felan Ave", "DESCRIPTIO": "Outdoor Pool" }, "geometry": { "type": "Point", "coordinates": [ -79.678930838929404, 43.439339551899899 ] } },
{ "type": "Feature", "properties": { "FID": 96, "NAME": "Iroquois Ridge Pool", "ADDRESS": "1051 Glenashton Dr", "DESCRIPTIO": "Pool" }, "geometry": { "type": "Point", "coordinates": [ -79.701326375928204, 43.488195544367201 ] } },
{ "type": "Feature", "properties": { "FID": 97, "NAME": "Iroquois Ridge Branch Library", "ADDRESS": "1051 Glenashton Dr", "DESCRIPTIO": "Library" }, "geometry": { "type": "Point", "coordinates": [ -79.700740049736396, 43.488142492953202 ] } },
{ "type": "Feature", "properties": { "FID": 98, "NAME": "Glen Abbey Branch Library", "ADDRESS": "1415 Third Line", "DESCRIPTIO": "Library" }, "geometry": { "type": "Point", "coordinates": [ -79.739120030540406, 43.435804366731197 ] } },
{ "type": "Feature", "properties": { "FID": 99, "NAME": "Glen Abbey Pool", "ADDRESS": "1415 Third Line", "DESCRIPTIO": "Indoor Pool" }, "geometry": { "type": "Point", "coordinates": [ -79.738828903570806, 43.4355629656636 ] } },
{ "type": "Feature", "properties": { "FID": 100, "NAME": "Wedgewood Pool", "ADDRESS": "351 Cairncroft Rd", "DESCRIPTIO": "Outdoor Pool" }, "geometry": { "type": "Point", "coordinates": [ -79.657577529418305, 43.468799271577602 ] } },
{ "type": "Feature", "properties": { "FID": 101, "NAME": "Brookdale Pool", "ADDRESS": "1215 Bridge Rd", "DESCRIPTIO": "Outdoor Pool" }, "geometry": { "type": "Point", "coordinates": [ -79.704223497638793, 43.423943133725103 ] } },
{ "type": "Feature", "properties": { "FID": 102, "NAME": "Land Fill Site", "ADDRESS": "Neyagawa Blvd", "DESCRIPTIO": "Landfill" }, "geometry": { "type": "Point", "coordinates": [ -79.759839951520206, 43.470462356488902 ] } },
{ "type": "Feature", "properties": { "FID": 103, "NAME": "Bronte Harbour", "ADDRESS": "Lakeshore Rd W", "DESCRIPTIO": "Harbour" }, "geometry": { "type": "Point", "coordinates": [ -79.713963266482395, 43.391292713389603 ] } },
{ "type": "Feature", "properties": { "FID": 104, "NAME": "Halton Regional Centre", "ADDRESS": "1151 Bronte Rd", "DESCRIPTIO": "Regional Offices" }, "geometry": { "type": "Point", "coordinates": [ -79.744369792326495, 43.414545967490902 ] } },
{ "type": "Feature", "properties": { "FID": 105, "NAME": "Gairloch Gallery", "ADDRESS": "1306 Lakeshore Rd E", "DESCRIPTIO": "Art\/culture" }, "geometry": { "type": "Point", "coordinates": [ -79.649828652749093, 43.461562329024297 ] } },
{ "type": "Feature", "properties": { "FID": 106, "NAME": "Oakville Centre For The Performing Arts", "ADDRESS": "130 Navy St", "DESCRIPTIO": "Art\/culture" }, "geometry": { "type": "Point", "coordinates": [ -79.671674484290307, 43.444297000581599 ] } },
{ "type": "Feature", "properties": { "FID": 107, "NAME": "The Old Post Office", "ADDRESS": "144 Front St", "DESCRIPTIO": "Art\/culture" }, "geometry": { "type": "Point", "coordinates": [ -79.666020765390698, 43.442766886299502 ] } },
{ "type": "Feature", "properties": { "FID": 108, "NAME": "Pine Glen Park Soccer Field 1", "ADDRESS": "1482- 1520  Pine Glen Rd", "DESCRIPTIO": "Soccer - Major" }, "geometry": { "type": "Point", "coordinates": [ -79.7541327491262, 43.450065071321397 ] } },
{ "type": "Feature", "properties": { "FID": 109, "NAME": "Post Park Soccer Field", "ADDRESS": "512 Macdonald Rd", "DESCRIPTIO": "Soccer - Major" }, "geometry": { "type": "Point", "coordinates": [ -79.668028862275193, 43.459128030310701 ] } },
{ "type": "Feature", "properties": { "FID": 110, "NAME": "Pine Glen Park Soccer Field 4", "ADDRESS": "1482- 1520  Pine Glen Rd", "DESCRIPTIO": "Soccer - Major" }, "geometry": { "type": "Point", "coordinates": [ -79.754947630885098, 43.449469455679299 ] } },
{ "type": "Feature", "properties": { "FID": 111, "NAME": "Pine Glen Park Soccer Field 2", "ADDRESS": "1482- 1520  Pine Glen Rd", "DESCRIPTIO": "Soccer - Major" }, "geometry": { "type": "Point", "coordinates": [ -79.752942069555701, 43.449197910379198 ] } },
{ "type": "Feature", "properties": { "FID": 112, "NAME": "Pine Glen Park Soccer Field 3", "ADDRESS": "1482- 1520  Pine Glen Rd", "DESCRIPTIO": "Soccer - Major" }, "geometry": { "type": "Point", "coordinates": [ -79.753801351314607, 43.4486356436459 ] } },
{ "type": "Feature", "properties": { "FID": 113, "NAME": "Fire Training Centre", "ADDRESS": "1140 South Service Rd W", "DESCRIPTIO": "Municipal Offices" }, "geometry": { "type": "Point", "coordinates": [ -79.711107879106095, 43.431131613273202 ] } },
{ "type": "Feature", "properties": { "FID": 114, "NAME": "Central Operations", "ADDRESS": "1140 South Service Rd W", "DESCRIPTIO": "Municipal Offices" }, "geometry": { "type": "Point", "coordinates": [ -79.709411433646906, 43.431488406003801 ] } },
{ "type": "Feature", "properties": { "FID": 115, "NAME": "Oakville Transit Administrative Offices", "ADDRESS": "430 Wyecroft Rd", "DESCRIPTIO": "Municipal Offices" }, "geometry": { "type": "Point", "coordinates": [ -79.701739467042501, 43.440544700665697 ] } },
{ "type": "Feature", "properties": { "FID": 116, "NAME": "Bronte Harbour Washroom", "ADDRESS": "75 West River St", "DESCRIPTIO": "Washroom" }, "geometry": { "type": "Point", "coordinates": [ -79.711477708733995, 43.393286298444899 ] } },
{ "type": "Feature", "properties": { "FID": 117, "NAME": "Parking Control Office", "ADDRESS": "115 Dunn Street", "DESCRIPTIO": "Municipal Offices" }, "geometry": { "type": "Point", "coordinates": [ -79.667809267922195, 43.447114850214099 ] } },
{ "type": "Feature", "properties": { "FID": 118, "NAME": "Church Street Garage", "ADDRESS": "300 Church St", "DESCRIPTIO": "Parking Lot" }, "geometry": { "type": "Point", "coordinates": [ -79.666575872948698, 43.448194569517298 ] } },
{ "type": "Feature", "properties": { "FID": 119, "NAME": "Transit Garage", "ADDRESS": "430 Wyecroft Rd", "DESCRIPTIO": "Transit" }, "geometry": { "type": "Point", "coordinates": [ -79.700515385465195, 43.440042543049003 ] } },
{ "type": "Feature", "properties": { "FID": 120, "NAME": "Uptown Core Transit Hub", "ADDRESS": "271 Taunton Road", "DESCRIPTIO": "Transit" }, "geometry": { "type": "Point", "coordinates": [ -79.719143485029804, 43.485627530192197 ] } },
{ "type": "Feature", "properties": { "FID": 121, "NAME": "White Oaks Branch Library", "ADDRESS": "1070 Mccraney St E", "DESCRIPTIO": "Library" }, "geometry": { "type": "Point", "coordinates": [ -79.702097204489306, 43.463799125281497 ] } },
{ "type": "Feature", "properties": { "FID": 122, "NAME": "Oakville Museum At Erchless Estates", "ADDRESS": "8 Navy St", "DESCRIPTIO": "Art\/culture" }, "geometry": { "type": "Point", "coordinates": [ -79.666736117915093, 43.441951259831299 ] } },
{ "type": "Feature", "properties": { "FID": 123, "NAME": "Bronte Heritage Park Washroom", "ADDRESS": "2340 Ontario St", "DESCRIPTIO": "Washroom" }, "geometry": { "type": "Point", "coordinates": [ -79.704676529439297, 43.395485614942899 ] } },
{ "type": "Feature", "properties": { "FID": 124, "NAME": "Bronte Beach Park Washroom\/shower", "ADDRESS": "75 West River St", "DESCRIPTIO": "Washroom\/shower\/changeroom" }, "geometry": { "type": "Point", "coordinates": [ -79.711591989423695, 43.391170132139401 ] } },
{ "type": "Feature", "properties": { "FID": 125, "NAME": "Woodhaven Park Playground", "ADDRESS": "1411 Hixon St", "DESCRIPTIO": "Playground" }, "geometry": { "type": "Point", "coordinates": [ -79.700009016425099, 43.411650742825302 ] } },
{ "type": "Feature", "properties": { "FID": 126, "NAME": "Bronte Harbour Gazebo", "ADDRESS": "75 West River St", "DESCRIPTIO": "Gazebo" }, "geometry": { "type": "Point", "coordinates": [ -79.712593514265905, 43.391587112179103 ] } },
{ "type": "Feature", "properties": { "FID": 127, "NAME": "St. Ignatius Of Loyola Secondary School Track", "ADDRESS": "1454 Nottinghill Gate", "DESCRIPTIO": "Track" }, "geometry": { "type": "Point", "coordinates": [ -79.734713146176304, 43.443993874337004 ] } },
{ "type": "Feature", "properties": { "FID": 128, "NAME": "Oakville Trafalgar Secondary School Track", "ADDRESS": "1460 Devon Road", "DESCRIPTIO": "Track" }, "geometry": { "type": "Point", "coordinates": [ -79.653415369668195, 43.472153988719 ] } },
{ "type": "Feature", "properties": { "FID": 129, "NAME": "White Oaks Pool", "ADDRESS": "1330 Montclair Dr", "DESCRIPTIO": "Indoor Pool" }, "geometry": { "type": "Point", "coordinates": [ -79.700999537965799, 43.462723907627598 ] } },
{ "type": "Feature", "properties": { "FID": 130, "NAME": "West Oak Trails Park North Parking Lot", "ADDRESS": "2860 Westoak Trails Blvd.", "DESCRIPTIO": "Parking Lot" }, "geometry": { "type": "Point", "coordinates": [ -79.754674525873895, 43.432692037650597 ] } },
{ "type": "Feature", "properties": { "FID": 131, "NAME": "Holy Trinity Secondary School Track", "ADDRESS": "2420 Sixth Line", "DESCRIPTIO": "Track" }, "geometry": { "type": "Point", "coordinates": [ -79.725331401051605, 43.472122674843597 ] } },
{ "type": "Feature", "properties": { "FID": 132, "NAME": "Abbey Park Secondary School Track", "ADDRESS": "1455 Glen Abbey Gate", "DESCRIPTIO": "Track" }, "geometry": { "type": "Point", "coordinates": [ -79.736815054780806, 43.437446066137198 ] } },
{ "type": "Feature", "properties": { "FID": 133, "NAME": "T. A. Blakelock Secondary School Soccer Field", "ADDRESS": "1160 Rebecca Street", "DESCRIPTIO": "Soccer - Major" }, "geometry": { "type": "Point", "coordinates": [ -79.693566351588601, 43.418734895594099 ] } },
{ "type": "Feature", "properties": { "FID": 134, "NAME": "West Oak Trails Park Soccer Field 2", "ADDRESS": "2860 Westoak Trails Blvd.", "DESCRIPTIO": "Soccer - Major" }, "geometry": { "type": "Point", "coordinates": [ -79.751383493700303, 43.431436848138297 ] } },
{ "type": "Feature", "properties": { "FID": 135, "NAME": "Wallace Park Parking Lot", "ADDRESS": "245 Reynolds St", "DESCRIPTIO": "Parking Lot" }, "geometry": { "type": "Point", "coordinates": [ -79.670251479684495, 43.4512469839161 ] } },
{ "type": "Feature", "properties": { "FID": 136, "NAME": "Sheridan Public School Playground", "ADDRESS": "1555 Lancaster Dr", "DESCRIPTIO": "Playground" }, "geometry": { "type": "Point", "coordinates": [ -79.689823153480404, 43.481281379800699 ] } },
{ "type": "Feature", "properties": { "FID": 137, "NAME": "West Oak Trails Park South Parking Lot", "ADDRESS": "2860 Westoak Trails Blvd.", "DESCRIPTIO": "Parking Lot" }, "geometry": { "type": "Point", "coordinates": [ -79.751139045360901, 43.431904787613497 ] } },
{ "type": "Feature", "properties": { "FID": 138, "NAME": "Sovereign House", "ADDRESS": "7 West River St", "DESCRIPTIO": "Museum" }, "geometry": { "type": "Point", "coordinates": [ -79.710911052760196, 43.390312978873602 ] } },
{ "type": "Feature", "properties": { "FID": 139, "NAME": "White Oaks Secondary School South Track", "ADDRESS": "1330 Montclair Dr", "DESCRIPTIO": "Track" }, "geometry": { "type": "Point", "coordinates": [ -79.703363504261901, 43.462731724987002 ] } },
{ "type": "Feature", "properties": { "FID": 140, "NAME": "T. A. Blakelock Secondary School Track", "ADDRESS": "1160 Rebecca Street", "DESCRIPTIO": "Track" }, "geometry": { "type": "Point", "coordinates": [ -79.693933982016603, 43.418490054635903 ] } },
{ "type": "Feature", "properties": { "FID": 141, "NAME": "Lakeside Park Gazebo", "ADDRESS": "144 Front Street", "DESCRIPTIO": "Gazebo" }, "geometry": { "type": "Point", "coordinates": [ -79.665927435538194, 43.442454493204202 ] } },
{ "type": "Feature", "properties": { "FID": 142, "NAME": "Bronte Butterfly Foundation Gazebo", "ADDRESS": "2340 Ontario St", "DESCRIPTIO": "Gazebo" }, "geometry": { "type": "Point", "coordinates": [ -79.707173425485294, 43.393859695374097 ] } },
{ "type": "Feature", "properties": { "FID": 143, "NAME": "Bronte Heritage Park Washroom", "ADDRESS": "2340 Ontario St", "DESCRIPTIO": "Washroom" }, "geometry": { "type": "Point", "coordinates": [ -79.707587794566393, 43.393893679722702 ] } },
{ "type": "Feature", "properties": { "FID": 144, "NAME": "Woodhaven Park Playground", "ADDRESS": "1411 Hixon St", "DESCRIPTIO": "Playground" }, "geometry": { "type": "Point", "coordinates": [ -79.700015022421397, 43.411591697818402 ] } },
{ "type": "Feature", "properties": { "FID": 145, "NAME": "Towarf", "ADDRESS": "2 Navy Street", "DESCRIPTIO": "Municipal Offices" }, "geometry": { "type": "Point", "coordinates": [ -79.666272770631494, 43.441298503662203 ] } },
{ "type": "Feature", "properties": { "FID": 146, "NAME": "St. Thomas Aquinas Secondary School Track", "ADDRESS": "124 Dorval Dr", "DESCRIPTIO": "Track" }, "geometry": { "type": "Point", "coordinates": [ -79.681400054452496, 43.435392141389201 ] } },
{ "type": "Feature", "properties": { "FID": 147, "NAME": "Iroquois Ridge Secondary School Track", "ADDRESS": "1123 Glenashton Dr", "DESCRIPTIO": "Track" }, "geometry": { "type": "Point", "coordinates": [ -79.698778625664005, 43.489575704356596 ] } },
{ "type": "Feature", "properties": { "FID": 148, "NAME": "West Oak Trails Park Soccer Field 1", "ADDRESS": "2860 Westoak Trails Blvd.", "DESCRIPTIO": "Soccer - Major" }, "geometry": { "type": "Point", "coordinates": [ -79.752555726887294, 43.432241120297498 ] } },
{ "type": "Feature", "properties": { "FID": 149, "NAME": "West Oak Trails Park South Parking Lot", "ADDRESS": "2860 Westoak Trails Blvd.", "DESCRIPTIO": "Parking Lot" }, "geometry": { "type": "Point", "coordinates": [ -79.750325073056601, 43.431809218863798 ] } },
{ "type": "Feature", "properties": { "FID": 150, "NAME": "Queen Elizabeth Park Community Centre", "ADDRESS": "2302 Bridge Road", "DESCRIPTIO": "Community Centre" }, "geometry": { "type": "Point", "coordinates": [ -79.718601629764194, 43.405300962344903 ] } },
{ "type": "Feature", "properties": { "FID": 151, "NAME": "Municipal Greenhouse", "ADDRESS": "1100 Cornwall Rd", "DESCRIPTIO": "Municipal Offices" }, "geometry": { "type": "Point", "coordinates": [ -79.670421964033295, 43.467041723573203 ] } },
{ "type": "Feature", "properties": { "FID": 152, "NAME": "Centennial Pool", "ADDRESS": "120 Navy St", "DESCRIPTIO": "Pool" }, "geometry": { "type": "Point", "coordinates": [ -79.671518120812095, 43.444077866164299 ] } },
{ "type": "Feature", "properties": { "FID": 153, "NAME": "Roads\/ Works & Parks Storage", "ADDRESS": "1025 Cornwall Rd", "DESCRIPTIO": "Municipal Offices" }, "geometry": { "type": "Point", "coordinates": [ -79.672548115158193, 43.465595013663403 ] } },
{ "type": "Feature", "properties": { "FID": 154, "NAME": "South East Depot", "ADDRESS": "1150 Cornwall Rd", "DESCRIPTIO": "Municipal Offices" }, "geometry": { "type": "Point", "coordinates": [ -79.669923578319199, 43.468088636894002 ] } },
{ "type": "Feature", "properties": { "FID": 155, "NAME": "River Oaks Community Centre", "ADDRESS": "2400 Sixth Line", "DESCRIPTIO": "Community Centre" }, "geometry": { "type": "Point", "coordinates": [ -79.723580603325004, 43.471058975913998 ] } },
{ "type": "Feature", "properties": { "FID": 156, "NAME": "Glen Abbey Community Centre", "ADDRESS": "1415 Third Line", "DESCRIPTIO": "Community Centre" }, "geometry": { "type": "Point", "coordinates": [ -79.739182217132694, 43.435577163139399 ] } },
{ "type": "Feature", "properties": { "FID": 157, "NAME": "Kinoak Arena", "ADDRESS": "363 Warminster Dr", "DESCRIPTIO": "Indoor Arena Pad" }, "geometry": { "type": "Point", "coordinates": [ -79.700092048157501, 43.419704064181502 ] } },
{ "type": "Feature", "properties": { "FID": 158, "NAME": "Maple Grove Arena", "ADDRESS": "2237 Devon Rd", "DESCRIPTIO": "Indoor Arena Pad" }, "geometry": { "type": "Point", "coordinates": [ -79.643737789413194, 43.479150527433802 ] } },
{ "type": "Feature", "properties": { "FID": 159, "NAME": "Glen Abbey Blue Arena", "ADDRESS": "1415 Third Line", "DESCRIPTIO": "Indoor Arena Pad" }, "geometry": { "type": "Point", "coordinates": [ -79.738865407457595, 43.436139831358801 ] } },
{ "type": "Feature", "properties": { "FID": 160, "NAME": "Laurelwood Park Playground", "ADDRESS": "420 Hedgerow Lane", "DESCRIPTIO": "Playground" }, "geometry": { "type": "Point", "coordinates": [ -79.703997695365999, 43.4811788371616 ] } },
{ "type": "Feature", "properties": { "FID": 161, "NAME": "Notley Park Playground", "ADDRESS": "1021 Nottinghill Gate", "DESCRIPTIO": "Playground" }, "geometry": { "type": "Point", "coordinates": [ -79.714143427452399, 43.442014015809399 ] } },
{ "type": "Feature", "properties": { "FID": 162, "NAME": "Post Park Playground", "ADDRESS": "512 Macdonald Rd", "DESCRIPTIO": "Playground" }, "geometry": { "type": "Point", "coordinates": [ -79.667454262946805, 43.4584994844273 ] } },
{ "type": "Feature", "properties": { "FID": 163, "NAME": "Holton Heights Park Playground", "ADDRESS": "1315 Holton Heights Dr", "DESCRIPTIO": "Playground" }, "geometry": { "type": "Point", "coordinates": [ -79.689387957224994, 43.473768628629401 ] } },
{ "type": "Feature", "properties": { "FID": 164, "NAME": "Maplegrove Park Playground", "ADDRESS": "2237 Devon Rd", "DESCRIPTIO": "Playground" }, "geometry": { "type": "Point", "coordinates": [ -79.643008080907506, 43.479031197918303 ] } },
{ "type": "Feature", "properties": { "FID": 165, "NAME": "Grand Oak Park Playground", "ADDRESS": "2205 Grand Oak Trail", "DESCRIPTIO": "Playground" }, "geometry": { "type": "Point", "coordinates": [ -79.761589615896398, 43.429690107649598 ] } },
{ "type": "Feature", "properties": { "FID": 166, "NAME": "Deer Run Park Playground", "ADDRESS": "2406 Deer Run Ave", "DESCRIPTIO": "Playground" }, "geometry": { "type": "Point", "coordinates": [ -79.641798654017904, 43.483868367517097 ] } },
{ "type": "Feature", "properties": { "FID": 167, "NAME": "Elm Road Park Playground", "ADDRESS": "2070 Elm Rd", "DESCRIPTIO": "Playground" }, "geometry": { "type": "Point", "coordinates": [ -79.716331178835802, 43.465423409174697 ] } },
{ "type": "Feature", "properties": { "FID": 168, "NAME": "Golden Meadow Park Playground", "ADDRESS": "1426 Golden Meadow Trail", "DESCRIPTIO": "Playground" }, "geometry": { "type": "Point", "coordinates": [ -79.694609468471299, 43.477103432623402 ] } },
{ "type": "Feature", "properties": { "FID": 169, "NAME": "River Glen Park Playground", "ADDRESS": "367 River Glen Rd", "DESCRIPTIO": "Playground" }, "geometry": { "type": "Point", "coordinates": [ -79.736279902175198, 43.467200523543298 ] } },
{ "type": "Feature", "properties": { "FID": 170, "NAME": "Queen Elizabeth Park Community Centre Pool", "ADDRESS": "2302 Bridge Road", "DESCRIPTIO": "Pool" }, "geometry": { "type": "Point", "coordinates": [ -79.719732979624695, 43.4049489602086 ] } },
{ "type": "Feature", "properties": { "FID": 171, "NAME": "Munn's Creek Park Playground", "ADDRESS": "153 River Oaks Blvd W", "DESCRIPTIO": "Playground" }, "geometry": { "type": "Point", "coordinates": [ -79.721207811325201, 43.4659227682451 ] } },
{ "type": "Feature", "properties": { "FID": 172, "NAME": "Bloomfield Park Playground", "ADDRESS": "2531 West Oak Trails Blvd", "DESCRIPTIO": "Playground" }, "geometry": { "type": "Point", "coordinates": [ -79.746482397826199, 43.444880140269099 ] } },
{ "type": "Feature", "properties": { "FID": 173, "NAME": "Jonathan Park Playground", "ADDRESS": "1180 Jonathan Dr", "DESCRIPTIO": "Playground" }, "geometry": { "type": "Point", "coordinates": [ -79.654417229127802, 43.498687129980503 ] } },
{ "type": "Feature", "properties": { "FID": 174, "NAME": "Morden Park Playground", "ADDRESS": "241 Morden Rd", "DESCRIPTIO": "Playground" }, "geometry": { "type": "Point", "coordinates": [ -79.688375737118307, 43.434343313004398 ] } },
{ "type": "Feature", "properties": { "FID": 175, "NAME": "Bronte Heritage Park Playground", "ADDRESS": "2340 Ontario St", "DESCRIPTIO": "Playground" }, "geometry": { "type": "Point", "coordinates": [ -79.704643384712895, 43.395859009382903 ] } },
{ "type": "Feature", "properties": { "FID": 176, "NAME": "Lindsay Park Playground", "ADDRESS": "1185 Dorval Dr", "DESCRIPTIO": "Playground" }, "geometry": { "type": "Point", "coordinates": [ -79.708333072941898, 43.448689517644802 ] } },
{ "type": "Feature", "properties": { "FID": 177, "NAME": "Litchfield Park Playground", "ADDRESS": "1435 White Oaks Blvd", "DESCRIPTIO": "Playground" }, "geometry": { "type": "Point", "coordinates": [ -79.697168454461902, 43.473967614429299 ] } },
{ "type": "Feature", "properties": { "FID": 178, "NAME": "Algrove Park Playground", "ADDRESS": "1373 White Oaks Blvd", "DESCRIPTIO": "Playground" }, "geometry": { "type": "Point", "coordinates": [ -79.694039240576899, 43.472413270664603 ] } },
{ "type": "Feature", "properties": { "FID": 179, "NAME": "Bayshire Woods Park Playground", "ADDRESS": "1300 Bayshire Dr", "DESCRIPTIO": "Playground" }, "geometry": { "type": "Point", "coordinates": [ -79.691817982581796, 43.492399651154898 ] } },
{ "type": "Feature", "properties": { "FID": 180, "NAME": "St. Ignatius Of Loyola Secondary School Soccer Field", "ADDRESS": "1454 Nottinghill Gate", "DESCRIPTIO": "Soccer - Major" }, "geometry": { "type": "Point", "coordinates": [ -79.734630739308898, 43.443625363123097 ] } },
{ "type": "Feature", "properties": { "FID": 181, "NAME": "Windrush Park Playground", "ADDRESS": "1225 Windrush Dr", "DESCRIPTIO": "Playground" }, "geometry": { "type": "Point", "coordinates": [ -79.728138444025205, 43.4381638844145 ] } },
{ "type": "Feature", "properties": { "FID": 182, "NAME": "Hopedale Park Soccer Field", "ADDRESS": "1436 Tansley Dr", "DESCRIPTIO": "Soccer - Mini" }, "geometry": { "type": "Point", "coordinates": [ -79.706439467217805, 43.414499988475598 ] } },
{ "type": "Feature", "properties": { "FID": 183, "NAME": "Glen Allen Park Soccer Field 2", "ADDRESS": "2503 Bridge Rd", "DESCRIPTIO": "Soccer - Major" }, "geometry": { "type": "Point", "coordinates": [ -79.722385587846901, 43.398843682529098 ] } },
{ "type": "Feature", "properties": { "FID": 184, "NAME": "Glen Abbey Park Hardball Diamond", "ADDRESS": "1415 Third Line", "DESCRIPTIO": "Hardball - Adult" }, "geometry": { "type": "Point", "coordinates": [ -79.739294128016795, 43.437186831675199 ] } },
{ "type": "Feature", "properties": { "FID": 185, "NAME": "Wilmot Park Playground", "ADDRESS": "3471 Wilmot Cres", "DESCRIPTIO": "Playground" }, "geometry": { "type": "Point", "coordinates": [ -79.725277960848203, 43.377216667156098 ] } },
{ "type": "Feature", "properties": { "FID": 186, "NAME": "Cornwall Road Sports Park Hardball Diamond 1", "ADDRESS": "425 Cornwall Road", "DESCRIPTIO": "Hardball - Youth" }, "geometry": { "type": "Point", "coordinates": [ -79.675997426974604, 43.460314529609199 ] } },
{ "type": "Feature", "properties": { "FID": 187, "NAME": "Forster Park Basketball Court", "ADDRESS": "100 North Forster Park Dr", "DESCRIPTIO": "Basketball Court" }, "geometry": { "type": "Point", "coordinates": [ -79.677437137716197, 43.449121202081102 ] } },
{ "type": "Feature", "properties": { "FID": 188, "NAME": "Oxford Park Soccer Field", "ADDRESS": "1406 Oxford Ave", "DESCRIPTIO": "Soccer - Mini" }, "geometry": { "type": "Point", "coordinates": [ -79.712094962555696, 43.457433283496002 ] } },
{ "type": "Feature", "properties": { "FID": 189, "NAME": "Bloomfield Park Soccer Field", "ADDRESS": "2531 West Oak Trails Blvd", "DESCRIPTIO": "Soccer - Major" }, "geometry": { "type": "Point", "coordinates": [ -79.747608641983902, 43.444818782287001 ] } },
{ "type": "Feature", "properties": { "FID": 190, "NAME": "Bronte Athletic Park Soccer Field", "ADDRESS": "2197 Lakeshore Rd W", "DESCRIPTIO": "Soccer - Major" }, "geometry": { "type": "Point", "coordinates": [ -79.707044839495097, 43.401262456319301 ] } },
{ "type": "Feature", "properties": { "FID": 191, "NAME": "Rebecca Gardens Soccer Field", "ADDRESS": "2149 Shelley Rd", "DESCRIPTIO": "Soccer - Mini" }, "geometry": { "type": "Point", "coordinates": [ -79.713741328416802, 43.408769772774797 ] } },
{ "type": "Feature", "properties": { "FID": 192, "NAME": "Glenashton Park Softball Diamond 2", "ADDRESS": "1051 Glenashton Drive", "DESCRIPTIO": "Softball - Adult" }, "geometry": { "type": "Point", "coordinates": [ -79.702271751133495, 43.488353119738001 ] } },
{ "type": "Feature", "properties": { "FID": 193, "NAME": "Nottinghill Park Soccer Field 1", "ADDRESS": "1150 Nottinghill Gate", "DESCRIPTIO": "Soccer - Mini" }, "geometry": { "type": "Point", "coordinates": [ -79.721940280061503, 43.440112293566798 ] } },
{ "type": "Feature", "properties": { "FID": 194, "NAME": "River Oaks Park Hardball Diamond 3", "ADDRESS": "2400 Sixth Line", "DESCRIPTIO": "Hardball - Adult" }, "geometry": { "type": "Point", "coordinates": [ -79.724907010936107, 43.468338139391697 ] } },
{ "type": "Feature", "properties": { "FID": 195, "NAME": "Trafalgar Park Playground", "ADDRESS": "133-171 Rebecca St", "DESCRIPTIO": "Playground" }, "geometry": { "type": "Point", "coordinates": [ -79.678846612118505, 43.440350154707502 ] } },
{ "type": "Feature", "properties": { "FID": 196, "NAME": "River Oaks Park Hardball Diamond 2", "ADDRESS": "2400 Sixth Line", "DESCRIPTIO": "Hardball - Adult" }, "geometry": { "type": "Point", "coordinates": [ -79.725204135017904, 43.470478029882003 ] } },
{ "type": "Feature", "properties": { "FID": 197, "NAME": "Wilder Park Playground", "ADDRESS": "1055 Westdale Rd", "DESCRIPTIO": "Playground" }, "geometry": { "type": "Point", "coordinates": [ -79.685730833471993, 43.420600652088801 ] } },
{ "type": "Feature", "properties": { "FID": 198, "NAME": "Wynten Way Park Playground", "ADDRESS": "2495 Wynten Way", "DESCRIPTIO": "Playground" }, "geometry": { "type": "Point", "coordinates": [ -79.659802413219396, 43.494971875530503 ] } },
{ "type": "Feature", "properties": { "FID": 199, "NAME": "Harman Gate Park Soccer Field", "ADDRESS": "186 River Glen Blvd", "DESCRIPTIO": "Soccer - Major" }, "geometry": { "type": "Point", "coordinates": [ -79.731162374622699, 43.471920425436103 ] } },
{ "type": "Feature", "properties": { "FID": 200, "NAME": "Glen Abbey Park Softball Diamond", "ADDRESS": "1415 Third Line", "DESCRIPTIO": "Softball - Adult" }, "geometry": { "type": "Point", "coordinates": [ -79.738942176739201, 43.4382642921993 ] } },
{ "type": "Feature", "properties": { "FID": 201, "NAME": "Clearview Park Softball Diamond", "ADDRESS": "1260 Sir David Dr", "DESCRIPTIO": "Softball - Adult" }, "geometry": { "type": "Point", "coordinates": [ -79.6598407398766, 43.500548500697903 ] } },
{ "type": "Feature", "properties": { "FID": 202, "NAME": "Bloomfield Park Basketball Court", "ADDRESS": "2531 West Oak Trails Blvd", "DESCRIPTIO": "Basketball Court" }, "geometry": { "type": "Point", "coordinates": [ -79.746814430068596, 43.444191369710502 ] } },
{ "type": "Feature", "properties": { "FID": 203, "NAME": "Waubanoka Parkette Playground", "ADDRESS": "Waubanoka & Fourth Line", "DESCRIPTIO": "Playground" }, "geometry": { "type": "Point", "coordinates": [ -79.742838449729405, 43.452208202863403 ] } },
{ "type": "Feature", "properties": { "FID": 204, "NAME": "Grand Oak Park Soccer Field", "ADDRESS": "2205 Grand Oak Trail", "DESCRIPTIO": "Soccer - Major" }, "geometry": { "type": "Point", "coordinates": [ -79.760206039744105, 43.430048665937498 ] } },
{ "type": "Feature", "properties": { "FID": 205, "NAME": "Morden Park Soccer Field", "ADDRESS": "241 Morden Rd", "DESCRIPTIO": "Soccer - Mini" }, "geometry": { "type": "Point", "coordinates": [ -79.687451440222503, 43.434301686378099 ] } },
{ "type": "Feature", "properties": { "FID": 206, "NAME": "Coronation Park Outdoor Volleyball Courts", "ADDRESS": "1426 Lakeshore Rd W", "DESCRIPTIO": "Volleyball" }, "geometry": { "type": "Point", "coordinates": [ -79.691828777440705, 43.407047933936497 ] } },
{ "type": "Feature", "properties": { "FID": 207, "NAME": "Brookdale Park Softball Diamond", "ADDRESS": "1215-1243 Bridge Rd", "DESCRIPTIO": "Softball - Youth" }, "geometry": { "type": "Point", "coordinates": [ -79.705132829297199, 43.425160361489198 ] } },
{ "type": "Feature", "properties": { "FID": 208, "NAME": "Munn's Creek Park Soccer Field", "ADDRESS": "153 River Oaks Blvd W", "DESCRIPTIO": "Soccer - Major" }, "geometry": { "type": "Point", "coordinates": [ -79.7218490567343, 43.466016100261299 ] } },
{ "type": "Feature", "properties": { "FID": 209, "NAME": "Valleybrook Park Playground", "ADDRESS": "1150 Valleybrook Dr", "DESCRIPTIO": "Playground" }, "geometry": { "type": "Point", "coordinates": [ -79.693539853131597, 43.487241246910799 ] } },
{ "type": "Feature", "properties": { "FID": 210, "NAME": "Oakville Park Soccer Field 1", "ADDRESS": "1065 Mccraney Street East", "DESCRIPTIO": "Soccer - Major" }, "geometry": { "type": "Point", "coordinates": [ -79.706930805223493, 43.466744892027798 ] } },
{ "type": "Feature", "properties": { "FID": 211, "NAME": "Heritage Way Park Softball Diamond", "ADDRESS": "1659 Heritage Way", "DESCRIPTIO": "Softball - Adult" }, "geometry": { "type": "Point", "coordinates": [ -79.741093396361606, 43.430743021359902 ] } },
{ "type": "Feature", "properties": { "FID": 212, "NAME": "Woodgate Woods Playground", "ADDRESS": "2088 Woodgate Dr", "DESCRIPTIO": "Playground" }, "geometry": { "type": "Point", "coordinates": [ -79.756021578916602, 43.441764936774 ] } },
{ "type": "Feature", "properties": { "FID": 213, "NAME": "River Oaks Park Soccer Field", "ADDRESS": "2400 Sixth Line", "DESCRIPTIO": "Soccer - Major" }, "geometry": { "type": "Point", "coordinates": [ -79.724004187343795, 43.469560519531399 ] } },
{ "type": "Feature", "properties": { "FID": 214, "NAME": "Bayshire Woods Park Playground", "ADDRESS": "1300bayshire Dr", "DESCRIPTIO": "Playground" }, "geometry": { "type": "Point", "coordinates": [ -79.692142818625001, 43.492425544992102 ] } },
{ "type": "Feature", "properties": { "FID": 215, "NAME": "Charnwood Park Playground", "ADDRESS": "183 Charnwood Dr", "DESCRIPTIO": "Playground" }, "geometry": { "type": "Point", "coordinates": [ -79.639565863705897, 43.475991647532901 ] } },
{ "type": "Feature", "properties": { "FID": 216, "NAME": "Annapolis Park Playground", "ADDRESS": "2331 Canso Rd", "DESCRIPTIO": "Playground" }, "geometry": { "type": "Point", "coordinates": [ -79.636999671359206, 43.479857981791703 ] } },
{ "type": "Feature", "properties": { "FID": 217, "NAME": "Arbourview Trail Playground", "ADDRESS": " ", "DESCRIPTIO": "Playground" }, "geometry": { "type": "Point", "coordinates": [ -79.748990463507894, 43.434968887446601 ] } },
{ "type": "Feature", "properties": { "FID": 218, "NAME": "Glenashton Park Playground", "ADDRESS": "1051 Glenashton Drive", "DESCRIPTIO": "Playground" }, "geometry": { "type": "Point", "coordinates": [ -79.701534819367495, 43.486858105632699 ] } },
{ "type": "Feature", "properties": { "FID": 219, "NAME": "Potters Wheel Park Playground", "ADDRESS": " ", "DESCRIPTIO": "Playground" }, "geometry": { "type": "Point", "coordinates": [ -79.717361071611705, 43.435926703088001 ] } },
{ "type": "Feature", "properties": { "FID": 220, "NAME": "Margaret Drive Park Playground", "ADDRESS": "363 Margaret Dr", "DESCRIPTIO": "Playground" }, "geometry": { "type": "Point", "coordinates": [ -79.688346422009701, 43.441549668306102 ] } },
{ "type": "Feature", "properties": { "FID": 221, "NAME": "Runnymead Park Playground", "ADDRESS": "100 Nottinghill Gate", "DESCRIPTIO": "Playground" }, "geometry": { "type": "Point", "coordinates": [ -79.714552561460295, 43.441433203900601 ] } },
{ "type": "Feature", "properties": { "FID": 222, "NAME": "Bishopstoke Park Playground", "ADDRESS": "1322 Bishopstoke Way", "DESCRIPTIO": "Playground" }, "geometry": { "type": "Point", "coordinates": [ -79.665236364513504, 43.497613433239003 ] } },
{ "type": "Feature", "properties": { "FID": 223, "NAME": "Holt0n Heights Park Playground", "ADDRESS": "1315 Holton Heights Dr", "DESCRIPTIO": "Playground" }, "geometry": { "type": "Point", "coordinates": [ -79.689530457461899, 43.473820982836898 ] } },
{ "type": "Feature", "properties": { "FID": 224, "NAME": "Heritage Way Park Playground", "ADDRESS": "1659 Heritage Way", "DESCRIPTIO": "Playground" }, "geometry": { "type": "Point", "coordinates": [ -79.741043189381301, 43.431316735055198 ] } },
{ "type": "Feature", "properties": { "FID": 225, "NAME": "Martindale Park Playground", "ADDRESS": "240 Martindale Ave", "DESCRIPTIO": "Playground" }, "geometry": { "type": "Point", "coordinates": [ -79.701834400959498, 43.471213039546001 ] } },
{ "type": "Feature", "properties": { "FID": 226, "NAME": "Langtry Park Playground", "ADDRESS": "2186 Brays Lane", "DESCRIPTIO": "Playground" }, "geometry": { "type": "Point", "coordinates": [ -79.733725210675999, 43.424076881843703 ] } },
{ "type": "Feature", "properties": { "FID": 227, "NAME": "Shell Park Playground", "ADDRESS": "3307 Lakeshore Rd W", "DESCRIPTIO": "Playground" }, "geometry": { "type": "Point", "coordinates": [ -79.718943934541699, 43.380128028491598 ] } },
{ "type": "Feature", "properties": { "FID": 228, "NAME": "Sunningdale Park Soccer Field", "ADDRESS": "1470 Pembrook Dr", "DESCRIPTIO": "Soccer - Mini" }, "geometry": { "type": "Point", "coordinates": [ -79.711020469570101, 43.461676740511997 ] } },
{ "type": "Feature", "properties": { "FID": 229, "NAME": "Wynten Way Park Softball Diamond", "ADDRESS": "2495 Wynten Way", "DESCRIPTIO": "Softball - Adult" }, "geometry": { "type": "Point", "coordinates": [ -79.6604557192518, 43.495846706450102 ] } },
{ "type": "Feature", "properties": { "FID": 230, "NAME": "Thornlea Park Baseball Diamond", "ADDRESS": "2062 Thornlea Dr", "DESCRIPTIO": "Softball Diamond" }, "geometry": { "type": "Point", "coordinates": [ -79.701797498539705, 43.404849141727396 ] } },
{ "type": "Feature", "properties": { "FID": 231, "NAME": "Wedgewood Park Softballball Diamond", "ADDRESS": "351 Cairncroft Rd", "DESCRIPTIO": "Softball - Youth" }, "geometry": { "type": "Point", "coordinates": [ -79.656876897771994, 43.469101328006197 ] } },
{ "type": "Feature", "properties": { "FID": 232, "NAME": "Trafalgar Park Softball Diamond 2", "ADDRESS": "133-171 Rebecca St", "DESCRIPTIO": "Softball - Adult" }, "geometry": { "type": "Point", "coordinates": [ -79.679401951861195, 43.439483922237699 ] } },
{ "type": "Feature", "properties": { "FID": 233, "NAME": "Sunningdale Park Softball Diamond", "ADDRESS": "1470 Pembrook Dr", "DESCRIPTIO": "Softball - Youth" }, "geometry": { "type": "Point", "coordinates": [ -79.710822513523794, 43.461078175977597 ] } },
{ "type": "Feature", "properties": { "FID": 234, "NAME": "Woodhaven Park Softball Diamond", "ADDRESS": "1411 Hixon St", "DESCRIPTIO": "Softball - Adult" }, "geometry": { "type": "Point", "coordinates": [ -79.700362557215101, 43.411813705877798 ] } },
{ "type": "Feature", "properties": { "FID": 235, "NAME": "Westbrook Park Softball Diamond", "ADDRESS": "297 Chalmers St", "DESCRIPTIO": "Softball - Adult" }, "geometry": { "type": "Point", "coordinates": [ -79.719941762418998, 43.392544650813498 ] } },
{ "type": "Feature", "properties": { "FID": 236, "NAME": "West Oak Trails Park Softball Diamond", "ADDRESS": "2860 Westoak Trails Blvd.", "DESCRIPTIO": "Softball - Adult" }, "geometry": { "type": "Point", "coordinates": [ -79.7560916847128, 43.4326486388712 ] } },
{ "type": "Feature", "properties": { "FID": 237, "NAME": "Southeast Sports Fields Softball Diamond", "ADDRESS": "2463 Lakeshore Rd E", "DESCRIPTIO": "Softball - Youth" }, "geometry": { "type": "Point", "coordinates": [ -79.632424671110897, 43.480653549654498 ] } },
{ "type": "Feature", "properties": { "FID": 238, "NAME": "Windrush Park Softball Diamond", "ADDRESS": "1225 Windrush Dr", "DESCRIPTIO": "Softball - Youth" }, "geometry": { "type": "Point", "coordinates": [ -79.728968451888804, 43.437944441658999 ] } },
{ "type": "Feature", "properties": { "FID": 239, "NAME": "Trafalgar Park Softball Diamond 1", "ADDRESS": "133-171 Rebecca St", "DESCRIPTIO": "Softball - Adult" }, "geometry": { "type": "Point", "coordinates": [ -79.680048265131603, 43.440595191029999 ] } },
{ "type": "Feature", "properties": { "FID": 240, "NAME": "Southeast Sports Fields Soccer Field", "ADDRESS": "2463 Lakeshore Rd E", "DESCRIPTIO": "Soccer - Major" }, "geometry": { "type": "Point", "coordinates": [ -79.633459741623199, 43.481708603007 ] } },
{ "type": "Feature", "properties": { "FID": 241, "NAME": "Wallace Park Hardball Diamond", "ADDRESS": "245 Raynolds St", "DESCRIPTIO": "Hardball - Youth" }, "geometry": { "type": "Point", "coordinates": [ -79.670101558281104, 43.451724220890398 ] } },
{ "type": "Feature", "properties": { "FID": 242, "NAME": "Westbrook Park Soccer Field", "ADDRESS": "297 Chalmers St", "DESCRIPTIO": "Soccer - Major" }, "geometry": { "type": "Point", "coordinates": [ -79.721008038085003, 43.3919069280253 ] } },
{ "type": "Feature", "properties": { "FID": 243, "NAME": "Eastview Public School Soccer Field", "ADDRESS": "2266 Hixon St", "DESCRIPTIO": "Soccer - Mini" }, "geometry": { "type": "Point", "coordinates": [ -79.708791195944698, 43.400685745682701 ] } },
{ "type": "Feature", "properties": { "FID": 244, "NAME": "Iroquois Ridge Secondary School Soccer Field", "ADDRESS": "1123 Glenashton Dr", "DESCRIPTIO": "Soccer - Major" }, "geometry": { "type": "Point", "coordinates": [ -79.698398415765496, 43.489810941823201 ] } },
{ "type": "Feature", "properties": { "FID": 245, "NAME": "Ecole Secondaire Gaetan Gervais Playground", "ADDRESS": "150 Ridge Drive", "DESCRIPTIO": "Playground" }, "geometry": { "type": "Point", "coordinates": [ -79.692758242430202, 43.461188406504697 ] } },
{ "type": "Feature", "properties": { "FID": 246, "NAME": "Maple Grove Public School Soccer Field 1", "ADDRESS": "288 Maple Grove Dr", "DESCRIPTIO": "Soccer - Major" }, "geometry": { "type": "Point", "coordinates": [ -79.652092186917301, 43.473214435156201 ] } },
{ "type": "Feature", "properties": { "FID": 247, "NAME": "Linbrook Public School Soccer Field 1", "ADDRESS": "1079 Linbrook Dr", "DESCRIPTIO": "Soccer - Mini" }, "geometry": { "type": "Point", "coordinates": [ -79.668082624240398, 43.465366929223997 ] } },
{ "type": "Feature", "properties": { "FID": 248, "NAME": "Holy Family Elementary Cs Softball Diamond", "ADDRESS": "1420 Grosvenor St", "DESCRIPTIO": "Softball - Youth" }, "geometry": { "type": "Point", "coordinates": [ -79.688061484398204, 43.480886539819799 ] } },
{ "type": "Feature", "properties": { "FID": 249, "NAME": "Gladys Speers Public School Playground", "ADDRESS": "2150 Samway Rd", "DESCRIPTIO": "Playground" }, "geometry": { "type": "Point", "coordinates": [ -79.7143160499228, 43.409783558275002 ] } },
{ "type": "Feature", "properties": { "FID": 250, "NAME": "Ecole Secondaire Gaetan Gervais  Soccer Field", "ADDRESS": "150 Ridge Drive", "DESCRIPTIO": "Soccer - Mini" }, "geometry": { "type": "Point", "coordinates": [ -79.6936627720264, 43.461271094160402 ] } },
{ "type": "Feature", "properties": { "FID": 251, "NAME": "Gladys Speers Public School Softball Diamond", "ADDRESS": "2150 Samway Rd", "DESCRIPTIO": "Softball - Youth" }, "geometry": { "type": "Point", "coordinates": [ -79.714452824200706, 43.408813125236399 ] } },
{ "type": "Feature", "properties": { "FID": 252, "NAME": "Falgarwood Public School Playground", "ADDRESS": "1385 Gainsborough Dr", "DESCRIPTIO": "Playground" }, "geometry": { "type": "Point", "coordinates": [ -79.682758662230199, 43.478900106432 ] } },
{ "type": "Feature", "properties": { "FID": 253, "NAME": "E. J. James Public School Soccer Field", "ADDRESS": "338 Cairncroft Rd", "DESCRIPTIO": "Soccer - Mini" }, "geometry": { "type": "Point", "coordinates": [ -79.658928142583093, 43.467963296355201 ] } },
{ "type": "Feature", "properties": { "FID": 254, "NAME": "Brookdale Public School Playground", "ADDRESS": "1195 Bridge Rd", "DESCRIPTIO": "Playground" }, "geometry": { "type": "Point", "coordinates": [ -79.704075582239795, 43.424492817112402 ] } },
{ "type": "Feature", "properties": { "FID": 255, "NAME": "Eastview Public School Softball Diamond", "ADDRESS": "2266 Hixon St", "DESCRIPTIO": "Softball - Youth" }, "geometry": { "type": "Point", "coordinates": [ -79.708626787778002, 43.400225568729098 ] } },
{ "type": "Feature", "properties": { "FID": 256, "NAME": "Brookdale Public School Soccer Field", "ADDRESS": "1195 Bridge Rd", "DESCRIPTIO": "Soccer - Mini" }, "geometry": { "type": "Point", "coordinates": [ -79.704639835391006, 43.424574423832198 ] } },
{ "type": "Feature", "properties": { "FID": 257, "NAME": "Brantwood Public School Playground", "ADDRESS": "221 Allan St", "DESCRIPTIO": "Playground" }, "geometry": { "type": "Point", "coordinates": [ -79.667960085633197, 43.452357294555497 ] } },
{ "type": "Feature", "properties": { "FID": 258, "NAME": "Millbank Park Playground", "ADDRESS": "166 Glenashton Dr", "DESCRIPTIO": "Playground" }, "geometry": { "type": "Point", "coordinates": [ -79.7180973429451, 43.474790439501398 ] } },
{ "type": "Feature", "properties": { "FID": 259, "NAME": "Millbank Park Playground", "ADDRESS": "166 Glenashton Dr", "DESCRIPTIO": "Playground" }, "geometry": { "type": "Point", "coordinates": [ -79.717842944059996, 43.474752749483898 ] } },
{ "type": "Feature", "properties": { "FID": 260, "NAME": "Tannery Park Washroom\/shower", "ADDRESS": "10-22 Walker St", "DESCRIPTIO": "Washroom\/shower\/changeroom" }, "geometry": { "type": "Point", "coordinates": [ -79.669047284708398, 43.440467560720997 ] } },
{ "type": "Feature", "properties": { "FID": 261, "NAME": "Millbank Park", "ADDRESS": "166 Glenashton Dr", "DESCRIPTIO": "Gazebo" }, "geometry": { "type": "Point", "coordinates": [ -79.717937555952304, 43.474804135054001 ] } },
{ "type": "Feature", "properties": { "FID": 262, "NAME": "St. Jude's Cemetery", "ADDRESS": "258 Lakeshore Rd W", "DESCRIPTIO": "Cemetery" }, "geometry": { "type": "Point", "coordinates": [ -79.677938269572493, 43.435099352506199 ] } },
{ "type": "Feature", "properties": { "FID": 263, "NAME": "Nipegon Trail Playground", "ADDRESS": " ", "DESCRIPTIO": "Playground" }, "geometry": { "type": "Point", "coordinates": [ -79.721221651587697, 43.473286003246798 ] } },
{ "type": "Feature", "properties": { "FID": 264, "NAME": "Eastview Public School Playground", "ADDRESS": "2266 Hixon St", "DESCRIPTIO": "Playground" }, "geometry": { "type": "Point", "coordinates": [ -79.709153335724693, 43.401580605553598 ] } },
{ "type": "Feature", "properties": { "FID": 265, "NAME": "Trafalgar Park Basketball Court", "ADDRESS": "133 Rebecca St", "DESCRIPTIO": "Basketball Court" }, "geometry": { "type": "Point", "coordinates": [ -79.678511552017497, 43.439107944295202 ] } },
{ "type": "Feature", "properties": { "FID": 266, "NAME": "Oakville Lawn Bowling Club Greens", "ADDRESS": "44 Navy St", "DESCRIPTIO": "Lawn Bowling" }, "geometry": { "type": "Point", "coordinates": [ -79.668026302520701, 43.442661120001397 ] } },
{ "type": "Feature", "properties": { "FID": 267, "NAME": "Langtry Park Parking Lot", "ADDRESS": "2186 Brays Lane", "DESCRIPTIO": "Parking Lot" }, "geometry": { "type": "Point", "coordinates": [ -79.734236560502495, 43.424370897329901 ] } },
{ "type": "Feature", "properties": { "FID": 268, "NAME": "Millbank Park Parking", "ADDRESS": "166 Glenashton Dr", "DESCRIPTIO": "Parking Lot" }, "geometry": { "type": "Point", "coordinates": [ -79.718284802962799, 43.4755095380659 ] } },
{ "type": "Feature", "properties": { "FID": 269, "NAME": "Pinery Park Parking Lot", "ADDRESS": "1439 Pinery Cres", "DESCRIPTIO": "Parking Lot" }, "geometry": { "type": "Point", "coordinates": [ -79.6944524516272, 43.498386312062102 ] } },
{ "type": "Feature", "properties": { "FID": 270, "NAME": "Petro Canada Park Parking Lot", "ADDRESS": "356 Bronte Rd", "DESCRIPTIO": "Parking Lot" }, "geometry": { "type": "Point", "coordinates": [ -79.724587692859799, 43.3973106794733 ] } },
{ "type": "Feature", "properties": { "FID": 271, "NAME": "Shell Park Central Parking Lot", "ADDRESS": "3307 Lakeshore Rd W", "DESCRIPTIO": "Parking Lot" }, "geometry": { "type": "Point", "coordinates": [ -79.719688706626599, 43.380309019394801 ] } },
{ "type": "Feature", "properties": { "FID": 272, "NAME": "Hillmer Park Parking Lot #13", "ADDRESS": "150 Water St", "DESCRIPTIO": "Parking Lot" }, "geometry": { "type": "Point", "coordinates": [ -79.6732014281326, 43.445451436358503 ] } },
{ "type": "Feature", "properties": { "FID": 273, "NAME": "Lions Valley Park Parking Lot", "ADDRESS": "1150 Dundas St W", "DESCRIPTIO": "Parking Lot" }, "geometry": { "type": "Point", "coordinates": [ -79.751680372287396, 43.459959299919902 ] } },
{ "type": "Feature", "properties": { "FID": 274, "NAME": "Lions Valley Park Picnic Area A", "ADDRESS": "1150 Dundas St W", "DESCRIPTIO": "Picnic Area" }, "geometry": { "type": "Point", "coordinates": [ -79.754110596586699, 43.4600289348529 ] } },
{ "type": "Feature", "properties": { "FID": 275, "NAME": "Harman Gate Park Parking Lot", "ADDRESS": "186 River Glen Blvd", "DESCRIPTIO": "Parking Lot" }, "geometry": { "type": "Point", "coordinates": [ -79.732219832255396, 43.472298790239201 ] } },
{ "type": "Feature", "properties": { "FID": 276, "NAME": "Shell Park West Parking Lot", "ADDRESS": "3307 Lakeshore Rd W", "DESCRIPTIO": "Parking Lot" }, "geometry": { "type": "Point", "coordinates": [ -79.721018961029799, 43.379834987109497 ] } },
{ "type": "Feature", "properties": { "FID": 277, "NAME": "Oakville Gymnastics Centre", "ADDRESS": "1415 Thrid Line", "DESCRIPTIO": "Gymnastics Centre" }, "geometry": { "type": "Point", "coordinates": [ -79.737878228404497, 43.435648218078498 ] } },
{ "type": "Feature", "properties": { "FID": 278, "NAME": "Aldercrest Park Soccer Field", "ADDRESS": "1454 Nottinghill Gate", "DESCRIPTIO": "Soccer - Mini" }, "geometry": { "type": "Point", "coordinates": [ -79.732474104551301, 43.443577532731403 ] } },
{ "type": "Feature", "properties": { "FID": 279, "NAME": "Pine Glen Park South Parking Lot", "ADDRESS": "1482- 1520  Pine Glen Rd", "DESCRIPTIO": "Parking Lot" }, "geometry": { "type": "Point", "coordinates": [ -79.755801388692802, 43.447568107475902 ] } },
{ "type": "Feature", "properties": { "FID": 280, "NAME": "Heritage Way Park Parking Lot", "ADDRESS": "1659 Heritage Way", "DESCRIPTIO": "Parking Lot" }, "geometry": { "type": "Point", "coordinates": [ -79.740796538089697, 43.431958599891303 ] } },
{ "type": "Feature", "properties": { "FID": 281, "NAME": "Coronation Park Ring Road And Parking", "ADDRESS": "1426 Lakeshore Rd W", "DESCRIPTIO": "Parking Lot" }, "geometry": { "type": "Point", "coordinates": [ -79.692533764370907, 43.407638468478098 ] } },
{ "type": "Feature", "properties": { "FID": 282, "NAME": "Oakville Senior Centre Parking Lot", "ADDRESS": "263 Kerr St", "DESCRIPTIO": "Parking Lot" }, "geometry": { "type": "Point", "coordinates": [ -79.679002474679805, 43.442659567447002 ] } },
{ "type": "Feature", "properties": { "FID": 283, "NAME": "Oakwood Public School Hardball Diamond", "ADDRESS": "357 Bartos Dr", "DESCRIPTIO": "Hardball - Youth" }, "geometry": { "type": "Point", "coordinates": [ -79.684234463528597, 43.4480805715204 ] } },
{ "type": "Feature", "properties": { "FID": 284, "NAME": "Bronte Athletic Park Field House", "ADDRESS": "2197 Lakeshore Rd W", "DESCRIPTIO": "Washroom\/shower\/changeroom" }, "geometry": { "type": "Point", "coordinates": [ -79.7063367304373, 43.401365610028201 ] } },
{ "type": "Feature", "properties": { "FID": 285, "NAME": "Pine Grove Public School Playground", "ADDRESS": "529 Sixth Line", "DESCRIPTIO": "Playground" }, "geometry": { "type": "Point", "coordinates": [ -79.696627081039594, 43.431233436372302 ] } },
{ "type": "Feature", "properties": { "FID": 286, "NAME": "Coronation Park Washroom", "ADDRESS": "1426 Lakeshore Rd W", "DESCRIPTIO": "Washroom" }, "geometry": { "type": "Point", "coordinates": [ -79.692125712989096, 43.408460541829299 ] } },
{ "type": "Feature", "properties": { "FID": 287, "NAME": "White Oaks Secondary School South Soccer Field North", "ADDRESS": "1330 Montclair Dr", "DESCRIPTIO": "Soccer - Major" }, "geometry": { "type": "Point", "coordinates": [ -79.703482289110795, 43.462288046821399 ] } },
{ "type": "Feature", "properties": { "FID": 288, "NAME": "Sheridan Public School Playground", "ADDRESS": "1555 Lancaster Dr", "DESCRIPTIO": "Playground" }, "geometry": { "type": "Point", "coordinates": [ -79.689536685916906, 43.48145456092 ] } },
{ "type": "Feature", "properties": { "FID": 289, "NAME": "White Oaks Secondary School South Soccer Field South", "ADDRESS": "1330 Montclair Dr", "DESCRIPTIO": "Soccer - Major" }, "geometry": { "type": "Point", "coordinates": [ -79.701287185271099, 43.461769314059602 ] } },
{ "type": "Feature", "properties": { "FID": 290, "NAME": "New Central Public School Soccer Field 1", "ADDRESS": "133 Balsam Dr", "DESCRIPTIO": "Soccer - Mini" }, "geometry": { "type": "Point", "coordinates": [ -79.662356049605904, 43.454421351345403 ] } },
{ "type": "Feature", "properties": { "FID": 291, "NAME": "Valleyridge Park Soccer Field", "ADDRESS": "2524 Valleyridge Drive", "DESCRIPTIO": "Soccer - Mini" }, "geometry": { "type": "Point", "coordinates": [ -79.7751944160254, 43.429644427495703 ] } },
{ "type": "Feature", "properties": { "FID": 292, "NAME": "Wallace Park Washroom", "ADDRESS": "245 Reynolds St", "DESCRIPTIO": "Washroom" }, "geometry": { "type": "Point", "coordinates": [ -79.670440922484801, 43.451636261508398 ] } },
{ "type": "Feature", "properties": { "FID": 293, "NAME": "Munn's Public School Playground", "ADDRESS": "1511 Sixth Line", "DESCRIPTIO": "Playground" }, "geometry": { "type": "Point", "coordinates": [ -79.708355901938205, 43.466079164641101 ] } },
{ "type": "Feature", "properties": { "FID": 294, "NAME": "Munn's Public School Soccer Field", "ADDRESS": "1511 Sixth Line", "DESCRIPTIO": "Soccer - Mini" }, "geometry": { "type": "Point", "coordinates": [ -79.708676399445196, 43.466663728839002 ] } },
{ "type": "Feature", "properties": { "FID": 295, "NAME": "Oakwood Public School Playground", "ADDRESS": "357 Bartos Dr", "DESCRIPTIO": "Playground" }, "geometry": { "type": "Point", "coordinates": [ -79.683948305306501, 43.447182588511303 ] } },
{ "type": "Feature", "properties": { "FID": 296, "NAME": "Oakville Trafalgar Secondary School Soccer Field", "ADDRESS": "1460 Devon Road", "DESCRIPTIO": "Soccer - Major" }, "geometry": { "type": "Point", "coordinates": [ -79.653044707106304, 43.471906958909301 ] } },
{ "type": "Feature", "properties": { "FID": 297, "NAME": "W. H. Morden Public School Soccer Field", "ADDRESS": "180 Morden Dr", "DESCRIPTIO": "Soccer - Mini" }, "geometry": { "type": "Point", "coordinates": [ -79.686632563684398, 43.433219297749197 ] } },
{ "type": "Feature", "properties": { "FID": 298, "NAME": "Sunningdale Ps Soccer Field", "ADDRESS": "1434 Oxford Ave", "DESCRIPTIO": "Soccer - Mini" }, "geometry": { "type": "Point", "coordinates": [ -79.713079041311303, 43.458176760554998 ] } },
{ "type": "Feature", "properties": { "FID": 299, "NAME": "Oakwood Public School Soccer Field", "ADDRESS": "357 Bartos Dr", "DESCRIPTIO": "Soccer - Mini" }, "geometry": { "type": "Point", "coordinates": [ -79.684376623512193, 43.447565273321203 ] } },
{ "type": "Feature", "properties": { "FID": 300, "NAME": "Lions Pool Changeroom", "ADDRESS": "159 Felan Ave", "DESCRIPTIO": "Changeroom" }, "geometry": { "type": "Point", "coordinates": [ -79.679095682428198, 43.439204061505301 ] } },
{ "type": "Feature", "properties": { "FID": 301, "NAME": "Shell Park Fieldhouse Washroom\/shower\/changeroom", "ADDRESS": "3307 Lakeshore Rd W", "DESCRIPTIO": "Washroom\/shower\/changeroom" }, "geometry": { "type": "Point", "coordinates": [ -79.722138466370694, 43.381797199262202 ] } },
{ "type": "Feature", "properties": { "FID": 302, "NAME": "West Oak Public School Soccer Field", "ADDRESS": "2071 Fourth Line", "DESCRIPTIO": "Soccer - Mini" }, "geometry": { "type": "Point", "coordinates": [ -79.735023422955393, 43.449134555233599 ] } },
{ "type": "Feature", "properties": { "FID": 303, "NAME": "Pine Glen Community Park Changeroom", "ADDRESS": "1482- 1520  Pine Glen Rd", "DESCRIPTIO": "Changeroom" }, "geometry": { "type": "Point", "coordinates": [ -79.755084677284998, 43.448670054699498 ] } },
{ "type": "Feature", "properties": { "FID": 304, "NAME": "Lawson Park Washroom", "ADDRESS": "148 Morrison Rd", "DESCRIPTIO": "Washroom" }, "geometry": { "type": "Point", "coordinates": [ -79.655097063225696, 43.460767987601102 ] } },
{ "type": "Feature", "properties": { "FID": 305, "NAME": "Sixteen Hollow Park Outdoor Ice Rink", "ADDRESS": "2140 Westoak Trails", "DESCRIPTIO": "Outdoor Ice Rink" }, "geometry": { "type": "Point", "coordinates": [ -79.734040976544307, 43.452123503875001 ] } },
{ "type": "Feature", "properties": { "FID": 306, "NAME": "Falgarwood Park Neighbourhood Ice Rink", "ADDRESS": "1349 Gainsborough Dr", "DESCRIPTIO": "Outdoor Ice Rink" }, "geometry": { "type": "Point", "coordinates": [ -79.684680517058197, 43.477900805077098 ] } },
{ "type": "Feature", "properties": { "FID": 307, "NAME": "Giarloch Galleries Parking Lot", "ADDRESS": "1306 Lakeshore Rd E", "DESCRIPTIO": "Parking Lot" }, "geometry": { "type": "Point", "coordinates": [ -79.646578715576595, 43.460910544136397 ] } },
{ "type": "Feature", "properties": { "FID": 308, "NAME": "Upper Middle Road Park Parking Lot", "ADDRESS": "310 Mccraney St W", "DESCRIPTIO": "Parking Lot" }, "geometry": { "type": "Point", "coordinates": [ -79.719171300710798, 43.459423143358499 ] } },
{ "type": "Feature", "properties": { "FID": 309, "NAME": "Coronation Park East Parking Lot", "ADDRESS": "1426 Lakeshore Rd W", "DESCRIPTIO": "Parking Lot" }, "geometry": { "type": "Point", "coordinates": [ -79.691525645983504, 43.410607102475801 ] } },
{ "type": "Feature", "properties": { "FID": 310, "NAME": "Ardleigh Park Parking Lot", "ADDRESS": "135 Maple Grove Dr", "DESCRIPTIO": "Parking Lot" }, "geometry": { "type": "Point", "coordinates": [ -79.644174371181407, 43.469673279475899 ] } },
{ "type": "Feature", "properties": { "FID": 311, "NAME": "Bloomfield Park Parking Lot", "ADDRESS": "2531 West Oak Trails Blvd", "DESCRIPTIO": "Parking Lot" }, "geometry": { "type": "Point", "coordinates": [ -79.747080766647798, 43.444011213772001 ] } },
{ "type": "Feature", "properties": { "FID": 312, "NAME": "Sixteen Hollow Park Softball Diamond", "ADDRESS": "2140 Westoak Trails", "DESCRIPTIO": "Softball - Adult" }, "geometry": { "type": "Point", "coordinates": [ -79.734063171124703, 43.452352934926601 ] } },
{ "type": "Feature", "properties": { "FID": 313, "NAME": "Kingsford Gardens South Parking Lot", "ADDRESS": "2667 Kingsway Dr", "DESCRIPTIO": "Parking Lot" }, "geometry": { "type": "Point", "coordinates": [ -79.666203707233905, 43.4953377526761 ] } },
{ "type": "Feature", "properties": { "FID": 314, "NAME": "Cornwall Road Sports Park Parking Lot", "ADDRESS": "425 Cornwall Road", "DESCRIPTIO": "Parking Lot" }, "geometry": { "type": "Point", "coordinates": [ -79.675330910024897, 43.460240474932498 ] } },
{ "type": "Feature", "properties": { "FID": 315, "NAME": "River Oaks Community Centre Parking Lot", "ADDRESS": "2400 Sixth Line", "DESCRIPTIO": "Parking Lot" }, "geometry": { "type": "Point", "coordinates": [ -79.723159284806101, 43.470259765571001 ] } },
{ "type": "Feature", "properties": { "FID": 316, "NAME": "Kingsford Gardens North Parking Lot", "ADDRESS": "2667 Kingsway Dr", "DESCRIPTIO": "Parking Lot" }, "geometry": { "type": "Point", "coordinates": [ -79.669677414473398, 43.497884359379903 ] } },
{ "type": "Feature", "properties": { "FID": 317, "NAME": "Maplegrove Arena Parking Lot", "ADDRESS": "2237 Devon Rd", "DESCRIPTIO": "Parking Lot" }, "geometry": { "type": "Point", "coordinates": [ -79.643281865745294, 43.4795727001367 ] } },
{ "type": "Feature", "properties": { "FID": 318, "NAME": "Donovan Bailey Park Parking Lot", "ADDRESS": "2218 Hixon St", "DESCRIPTIO": "Parking Lot" }, "geometry": { "type": "Point", "coordinates": [ -79.706287884329299, 43.400009057503397 ] } },
{ "type": "Feature", "properties": { "FID": 319, "NAME": "Holton Heights Park Parking Lot", "ADDRESS": "1315 Holton Heights Dr", "DESCRIPTIO": "Parking Lot" }, "geometry": { "type": "Point", "coordinates": [ -79.690190868072506, 43.473204945862904 ] } },
{ "type": "Feature", "properties": { "FID": 320, "NAME": "Sovereign House Parking Lot", "ADDRESS": "7 West River St", "DESCRIPTIO": "Parking Lot" }, "geometry": { "type": "Point", "coordinates": [ -79.711591777228804, 43.3905926992499 ] } },
{ "type": "Feature", "properties": { "FID": 321, "NAME": "Centennial Park Parking Lot #10", "ADDRESS": "120 Navy St", "DESCRIPTIO": "Parking Lot" }, "geometry": { "type": "Point", "coordinates": [ -79.671200928959493, 43.443576695073197 ] } },
{ "type": "Feature", "properties": { "FID": 322, "NAME": "Bronte Athletic Park Parking Lot", "ADDRESS": "2197 Lakeshore Rd W", "DESCRIPTIO": "Parking Lot" }, "geometry": { "type": "Point", "coordinates": [ -79.705559945881006, 43.400825984714999 ] } },
{ "type": "Feature", "properties": { "FID": 323, "NAME": "Post Park Parking Lot", "ADDRESS": "512 Macdonald Rd", "DESCRIPTIO": "Parking Lot" }, "geometry": { "type": "Point", "coordinates": [ -79.668869617272605, 43.459659212155898 ] } },
{ "type": "Feature", "properties": { "FID": 324, "NAME": "Nottinghill Park Parking Lot", "ADDRESS": "1150 Nottinghill Gate", "DESCRIPTIO": "Parking Lot" }, "geometry": { "type": "Point", "coordinates": [ -79.721111806484302, 43.439670284562801 ] } },
{ "type": "Feature", "properties": { "FID": 325, "NAME": "The Parkway Parking Lot", "ADDRESS": "1511 Bayshire Dr", "DESCRIPTIO": "Parking Lot" }, "geometry": { "type": "Point", "coordinates": [ -79.686619400281899, 43.498824201085299 ] } },
{ "type": "Feature", "properties": { "FID": 326, "NAME": "Lawson Park Parking Lot", "ADDRESS": "148 Morrison Rd", "DESCRIPTIO": "Parking Lot" }, "geometry": { "type": "Point", "coordinates": [ -79.654927177845295, 43.460640524163097 ] } },
{ "type": "Feature", "properties": { "FID": 327, "NAME": "Sir John Colbourne Seniors Centre Parking Lot", "ADDRESS": "1565 Old Lakeshore Rd", "DESCRIPTIO": "Parking Lot" }, "geometry": { "type": "Point", "coordinates": [ -79.696472501814995, 43.405230095735902 ] } },
{ "type": "Feature", "properties": { "FID": 328, "NAME": "Shell Park Skateboard Park", "ADDRESS": "3307 Lakeshore Rd W", "DESCRIPTIO": "Skateboard Park" }, "geometry": { "type": "Point", "coordinates": [ -79.719973771045105, 43.379745386258698 ] } },
{ "type": "Feature", "properties": { "FID": 329, "NAME": "Southeast Sports Fields Parking Lot", "ADDRESS": "2463 Lakeshore Rd E", "DESCRIPTIO": "Parking Lot" }, "geometry": { "type": "Point", "coordinates": [ -79.631590722417897, 43.481430077949497 ] } },
{ "type": "Feature", "properties": { "FID": 330, "NAME": "Bronte Beach Park Parking Lot", "ADDRESS": "35 West River St", "DESCRIPTIO": "Parking Lot" }, "geometry": { "type": "Point", "coordinates": [ -79.711220741175296, 43.391767078325401 ] } },
{ "type": "Feature", "properties": { "FID": 331, "NAME": "Bronte Harbour Parking Lot", "ADDRESS": "75 West River St", "DESCRIPTIO": "Parking Lot" }, "geometry": { "type": "Point", "coordinates": [ -79.712783311787902, 43.391458956091903 ] } },
{ "type": "Feature", "properties": { "FID": 332, "NAME": "Deer Run Park Parking Lot", "ADDRESS": "2406 Deer Run Ave", "DESCRIPTIO": "Parking Lot" }, "geometry": { "type": "Point", "coordinates": [ -79.642484030170607, 43.484264057153098 ] } },
{ "type": "Feature", "properties": { "FID": 333, "NAME": "Pinery Park Soccer Field 2", "ADDRESS": "1439 Pinery Cres", "DESCRIPTIO": "Soccer - Mini" }, "geometry": { "type": "Point", "coordinates": [ -79.695059653128197, 43.498690787585197 ] } },
{ "type": "Feature", "properties": { "FID": 334, "NAME": "Westbrook Park Parking Lot", "ADDRESS": "170 Wilson Street", "DESCRIPTIO": "Parking Lot" }, "geometry": { "type": "Point", "coordinates": [ -79.721666498120001, 43.392350749677099 ] } },
{ "type": "Feature", "properties": { "FID": 335, "NAME": "Shell Park North Parking Lot", "ADDRESS": "3307 Lakeshore Rd W", "DESCRIPTIO": "Parking Lot" }, "geometry": { "type": "Point", "coordinates": [ -79.722781072643201, 43.381820100282297 ] } },
{ "type": "Feature", "properties": { "FID": 336, "NAME": "Pinery Park Soccer Field 1", "ADDRESS": "1439 Pinery Cres", "DESCRIPTIO": "Soccer - Mini" }, "geometry": { "type": "Point", "coordinates": [ -79.695646298277893, 43.499034562686298 ] } },
{ "type": "Feature", "properties": { "FID": 337, "NAME": "Erchless Estates Parking Lot", "ADDRESS": "8 Navy St", "DESCRIPTIO": "Parking Lot" }, "geometry": { "type": "Point", "coordinates": [ -79.667067687749096, 43.442203040026698 ] } },
{ "type": "Feature", "properties": { "FID": 338, "NAME": "Sixteen Hollow Park Parking Lot", "ADDRESS": "2140 Westoak Trails", "DESCRIPTIO": "Parking Lot" }, "geometry": { "type": "Point", "coordinates": [ -79.734903136324405, 43.452463376933103 ] } },
{ "type": "Feature", "properties": { "FID": 339, "NAME": "Langtry Park Softball Diamond", "ADDRESS": "2186 Brays Lane", "DESCRIPTIO": "Softball - Adult" }, "geometry": { "type": "Point", "coordinates": [ -79.733282354502407, 43.423984973616399 ] } },
{ "type": "Feature", "properties": { "FID": 340, "NAME": "Ontario Hydro\/winston Park Parking Lot", "ADDRESS": " ", "DESCRIPTIO": "Parking Lot" }, "geometry": { "type": "Point", "coordinates": [ -79.677974173898804, 43.511126784472701 ] } },
{ "type": "Feature", "properties": { "FID": 341, "NAME": "Lions Pool Parking Lot", "ADDRESS": "159 Felan Ave", "DESCRIPTIO": "Parking Lot" }, "geometry": { "type": "Point", "coordinates": [ -79.679105763800294, 43.438985773923903 ] } },
{ "type": "Feature", "properties": { "FID": 342, "NAME": "Gairloch Gardens Parking Lot", "ADDRESS": "1288 Lakeshore Rd E", "DESCRIPTIO": "Parking Lot" }, "geometry": { "type": "Point", "coordinates": [ -79.650207767695306, 43.461923877044597 ] } },
{ "type": "Feature", "properties": { "FID": 343, "NAME": "Kinoak Arena Parking Lot", "ADDRESS": "363 Warminster Dr", "DESCRIPTIO": "Parking Lot" }, "geometry": { "type": "Point", "coordinates": [ -79.700421667572797, 43.4199676570896 ] } },
{ "type": "Feature", "properties": { "FID": 344, "NAME": "Oakville Arena Parking Lot", "ADDRESS": "133-171 Rebecca St", "DESCRIPTIO": "Parking Lot" }, "geometry": { "type": "Point", "coordinates": [ -79.677279236994494, 43.440415340210301 ] } },
{ "type": "Feature", "properties": { "FID": 345, "NAME": "Towne Square Washroom", "ADDRESS": "210 Lakeshore Rd E", "DESCRIPTIO": "Washroom" }, "geometry": { "type": "Point", "coordinates": [ -79.667556267813694, 43.445479036286102 ] } },
{ "type": "Feature", "properties": { "FID": 346, "NAME": "Joshua's Creek Arenas", "ADDRESS": "1663 North Service Rd East", "DESCRIPTIO": "Indoor Arena Pad" }, "geometry": { "type": "Point", "coordinates": [ -79.676094021338898, 43.491851264767597 ] } },
{ "type": "Feature", "properties": { "FID": 347, "NAME": "Central Library", "ADDRESS": "120 Navy St", "DESCRIPTIO": "Library" }, "geometry": { "type": "Point", "coordinates": [ -79.670715959929893, 43.443965116553997 ] } },
{ "type": "Feature", "properties": { "FID": 348, "NAME": "Oakville Galleries", "ADDRESS": "120 Navy St", "DESCRIPTIO": "Art\/culture" }, "geometry": { "type": "Point", "coordinates": [ -79.671027859003004, 43.444110483969702 ] } },
{ "type": "Feature", "properties": { "FID": 349, "NAME": "Nottinghill Park Soccer Field 2", "ADDRESS": "1150 Nottinghill Gate", "DESCRIPTIO": "Soccer - Mini" }, "geometry": { "type": "Point", "coordinates": [ -79.721594510614906, 43.439854975787902 ] } },
{ "type": "Feature", "properties": { "FID": 350, "NAME": "Woodgate Woods Playground", "ADDRESS": "2088 Woodgate Dr", "DESCRIPTIO": "Playground" }, "geometry": { "type": "Point", "coordinates": [ -79.756234244649903, 43.441900306534599 ] } },
{ "type": "Feature", "properties": { "FID": 351, "NAME": "Sunningdale Park Playground", "ADDRESS": "1470 Pembrook Dr", "DESCRIPTIO": "Playground" }, "geometry": { "type": "Point", "coordinates": [ -79.711339350545401, 43.461193539082103 ] } },
{ "type": "Feature", "properties": { "FID": 352, "NAME": "Sunningdale Park Playground", "ADDRESS": "1470 Pembrook Dr", "DESCRIPTIO": "Playground" }, "geometry": { "type": "Point", "coordinates": [ -79.711430971864701, 43.461272737513703 ] } },
{ "type": "Feature", "properties": { "FID": 353, "NAME": "River Glen Park Hardball Diamond", "ADDRESS": "376 River Glen Rd", "DESCRIPTIO": "Hardball - Youth" }, "geometry": { "type": "Point", "coordinates": [ -79.737030596815202, 43.466996858953799 ] } },
{ "type": "Feature", "properties": { "FID": 354, "NAME": "Neyagawa Park Hardball Diamond 2", "ADDRESS": "540 River Glen Blvd", "DESCRIPTIO": "Hardball - Adult" }, "geometry": { "type": "Point", "coordinates": [ -79.735644285057603, 43.460762471500402 ] } },
{ "type": "Feature", "properties": { "FID": 355, "NAME": "Cornwall Road Sports Park Hardball Diamond 2", "ADDRESS": "425 Cornwall Road", "DESCRIPTIO": "Hardball - Youth" }, "geometry": { "type": "Point", "coordinates": [ -79.676746504387594, 43.4601296738456 ] } },
{ "type": "Feature", "properties": { "FID": 356, "NAME": "Kingsford Gardens Soccer Field 2", "ADDRESS": "2667 Kingsway Dr", "DESCRIPTIO": "Soccer - Mini" }, "geometry": { "type": "Point", "coordinates": [ -79.669047079109404, 43.497455078133498 ] } },
{ "type": "Feature", "properties": { "FID": 357, "NAME": "Hopedale Park Softball Diamond", "ADDRESS": "1436 Tansley Dr", "DESCRIPTIO": "Softball - Youth" }, "geometry": { "type": "Point", "coordinates": [ -79.705371348779707, 43.414985981871297 ] } },
{ "type": "Feature", "properties": { "FID": 358, "NAME": "Nottinghill Park Softball Diamond", "ADDRESS": "1150 Nottinghill Gate", "DESCRIPTIO": "Softball - Adult" }, "geometry": { "type": "Point", "coordinates": [ -79.722967449371396, 43.440974656271401 ] } },
{ "type": "Feature", "properties": { "FID": 359, "NAME": "Shell Park Soccer Field 2", "ADDRESS": "3307 Lakeshore Rd W", "DESCRIPTIO": "Soccer - Major" }, "geometry": { "type": "Point", "coordinates": [ -79.720931670470804, 43.381625824354899 ] } },
{ "type": "Feature", "properties": { "FID": 360, "NAME": "Carol Park Playground", "ADDRESS": "2299 Carol Rd", "DESCRIPTIO": "Playground" }, "geometry": { "type": "Point", "coordinates": [ -79.648352507021499, 43.484757921235797 ] } },
{ "type": "Feature", "properties": { "FID": 361, "NAME": "Glen Allen Park Playground", "ADDRESS": "2503 Bridge Rd", "DESCRIPTIO": "Playground" }, "geometry": { "type": "Point", "coordinates": [ -79.722199800622803, 43.399831904108801 ] } },
{ "type": "Feature", "properties": { "FID": 362, "NAME": "Oakdale Park Playground", "ADDRESS": "80 Mccraney St E", "DESCRIPTIO": "Playground" }, "geometry": { "type": "Point", "coordinates": [ -79.706439230825495, 43.458881057274198 ] } },
{ "type": "Feature", "properties": { "FID": 363, "NAME": "Pinegrove Park Playground", "ADDRESS": "338 Pinegrove Rd", "DESCRIPTIO": "Playground" }, "geometry": { "type": "Point", "coordinates": [ -79.691454843944499, 43.439852055102101 ] } },
{ "type": "Feature", "properties": { "FID": 364, "NAME": "Smith Triller Overpass", "ADDRESS": " ", "DESCRIPTIO": "Information Kiosk" }, "geometry": { "type": "Point", "coordinates": [ -79.721169140811099, 43.458857629073002 ] } },
{ "type": "Feature", "properties": { "FID": 365, "NAME": "Randall St Kiosk", "ADDRESS": "265 Randall St", "DESCRIPTIO": "Information Kiosk" }, "geometry": { "type": "Point", "coordinates": [ -79.670745673197203, 43.445987208420497 ] } },
{ "type": "Feature", "properties": { "FID": 366, "NAME": "Glenashton Heritage Kiosk", "ADDRESS": "1051 Glenashton Drive", "DESCRIPTIO": "Information Kiosk" }, "geometry": { "type": "Point", "coordinates": [ -79.702389565824006, 43.4858909628379 ] } },
{ "type": "Feature", "properties": { "FID": 367, "NAME": "Fishermans Wharf", "ADDRESS": "12 Bronte Rd", "DESCRIPTIO": "Information Kiosk" }, "geometry": { "type": "Point", "coordinates": [ -79.7088727475236, 43.393716079366797 ] } },
{ "type": "Feature", "properties": { "FID": 368, "NAME": "West Oak Trails Park North Parking Lot", "ADDRESS": "2860 Westoak Trails Blvd.", "DESCRIPTIO": "Parking Lot" }, "geometry": { "type": "Point", "coordinates": [ -79.7519740732305, 43.4325047845429 ] } },
{ "type": "Feature", "properties": { "FID": 369, "NAME": "Lions Valley Park", "ADDRESS": "1150 Dundas St  W", "DESCRIPTIO": "Information Kiosk" }, "geometry": { "type": "Point", "coordinates": [ -79.751390496067401, 43.460043763940298 ] } },
{ "type": "Feature", "properties": { "FID": 370, "NAME": "Shipyard Park", "ADDRESS": "81 Francis St", "DESCRIPTIO": "Information Kiosk" }, "geometry": { "type": "Point", "coordinates": [ -79.671316612612102, 43.442331706315798 ] } },
{ "type": "Feature", "properties": { "FID": 371, "NAME": "Tannery Park", "ADDRESS": "10 Walker St", "DESCRIPTIO": "Information Kiosk" }, "geometry": { "type": "Point", "coordinates": [ -79.667633868596894, 43.440123883824803 ] } },
{ "type": "Feature", "properties": { "FID": 372, "NAME": "Q. E. Park Tennis Court", "ADDRESS": "2310 Bridge Road", "DESCRIPTIO": "Tennis Court - Private" }, "geometry": { "type": "Point", "coordinates": [ -79.720412307815394, 43.406103661077402 ] } },
{ "type": "Feature", "properties": { "FID": 373, "NAME": "St. John's Cs Softball Diamond", "ADDRESS": "2480 Mansfield Dr", "DESCRIPTIO": "Softball - Youth" }, "geometry": { "type": "Point", "coordinates": [ -79.715430816387098, 43.458347747299896 ] } },
{ "type": "Feature", "properties": { "FID": 374, "NAME": "Westoak Trails", "ADDRESS": "2149 Westoak Trails Blvd", "DESCRIPTIO": "Information Kiosk" }, "geometry": { "type": "Point", "coordinates": [ -79.734870585669995, 43.453261108843101 ] } },
{ "type": "Feature", "properties": { "FID": 375, "NAME": "Kingsford Gardens", "ADDRESS": "2667 Kingsway Dr", "DESCRIPTIO": "Information Kiosk" }, "geometry": { "type": "Point", "coordinates": [ -79.664446629933806, 43.494570550199299 ] } },
{ "type": "Feature", "properties": { "FID": 376, "NAME": "Sixteen Mile Creek Heritage Trail", "ADDRESS": " ", "DESCRIPTIO": "Information Kiosk" }, "geometry": { "type": "Point", "coordinates": [ -79.737726826707501, 43.460472612022897 ] } },
{ "type": "Feature", "properties": { "FID": 377, "NAME": "George's Square", "ADDRESS": "179 Trafalgar Rd", "DESCRIPTIO": "Gazebo" }, "geometry": { "type": "Point", "coordinates": [ -79.6690260284701, 43.449620073432399 ] } },
{ "type": "Feature", "properties": { "FID": 378, "NAME": "Bronte Pool", "ADDRESS": "2184 Hixon St", "DESCRIPTIO": "Pool" }, "geometry": { "type": "Point", "coordinates": [ -79.707823752583707, 43.402129762984998 ] } },
{ "type": "Feature", "properties": { "FID": 379, "NAME": "Nottinghill Park Outdoor Ice Rink", "ADDRESS": "1150 Nottinghill Gate", "DESCRIPTIO": "Outdoor Ice Rink" }, "geometry": { "type": "Point", "coordinates": [ -79.720990975479495, 43.439719176802299 ] } },
{ "type": "Feature", "properties": { "FID": 380, "NAME": "Clearview Park Neighbourhood Ice Rink", "ADDRESS": "1260 Sir David Dr", "DESCRIPTIO": "Outdoor Ice Rink" }, "geometry": { "type": "Point", "coordinates": [ -79.660264318452306, 43.500321705949801 ] } },
{ "type": "Feature", "properties": { "FID": 381, "NAME": "Langtry Park Outdoor  Ice Rink", "ADDRESS": "2186 Brays Lane", "DESCRIPTIO": "Outdoor Ice Rink" }, "geometry": { "type": "Point", "coordinates": [ -79.734084229841997, 43.424295969949597 ] } },
{ "type": "Feature", "properties": { "FID": 382, "NAME": "Clearview Park Soccer Field 1", "ADDRESS": "1260 Sir David Dr", "DESCRIPTIO": "Soccer - Mini" }, "geometry": { "type": "Point", "coordinates": [ -79.658914629205199, 43.500302700363797 ] } },
{ "type": "Feature", "properties": { "FID": 383, "NAME": "Hillmer Park Washroom", "ADDRESS": "150-160 Water St", "DESCRIPTIO": "Washroom" }, "geometry": { "type": "Point", "coordinates": [ -79.6739031801674, 43.445349302663203 ] } },
{ "type": "Feature", "properties": { "FID": 384, "NAME": "Pine Glen Park Central Parking Lot", "ADDRESS": "1482- 1520  Pine Glen Rd", "DESCRIPTIO": "Parking Lot" }, "geometry": { "type": "Point", "coordinates": [ -79.756623630227196, 43.4489562467082 ] } },
{ "type": "Feature", "properties": { "FID": 385, "NAME": "Queen Elizabeth Park Community Centre Parking Lot", "ADDRESS": "2302 Bridge Road", "DESCRIPTIO": "Parking Lot" }, "geometry": { "type": "Point", "coordinates": [ -79.719421140536198, 43.4059827335427 ] } },
{ "type": "Feature", "properties": { "FID": 386, "NAME": "Laurelwood Park Softball Diamond", "ADDRESS": "420 Hedgerow Lane", "DESCRIPTIO": "Softball - Adult" }, "geometry": { "type": "Point", "coordinates": [ -79.704540565639704, 43.481527050544798 ] } },
{ "type": "Feature", "properties": { "FID": 387, "NAME": "Forster Park Washroom", "ADDRESS": "100 North Forster Park Dr", "DESCRIPTIO": "Washroom" }, "geometry": { "type": "Point", "coordinates": [ -79.677407068650894, 43.449637256889602 ] } },
{ "type": "Feature", "properties": { "FID": 388, "NAME": "Coronation Park Central Parking Lot", "ADDRESS": "1426 Lakeshore Rd W", "DESCRIPTIO": "Parking Lot" }, "geometry": { "type": "Point", "coordinates": [ -79.692065385981707, 43.409375626305497 ] } },
{ "type": "Feature", "properties": { "FID": 389, "NAME": "Holy Trinity Secondary School Soccer Field", "ADDRESS": "2420 Sixth Line", "DESCRIPTIO": "Soccer - Major" }, "geometry": { "type": "Point", "coordinates": [ -79.725775036017097, 43.472045978782901 ] } },
{ "type": "Feature", "properties": { "FID": 390, "NAME": "Post Corner's Public School Soccer Field", "ADDRESS": "2220 Caldwell Drive", "DESCRIPTIO": "Soccer - Mini" }, "geometry": { "type": "Point", "coordinates": [ -79.715587904829704, 43.47494627639 ] } },
{ "type": "Feature", "properties": { "FID": 391, "NAME": "Coronation Park Picnic Shelter", "ADDRESS": "1426 Lakeshore Rd W", "DESCRIPTIO": "Picnic Area" }, "geometry": { "type": "Point", "coordinates": [ -79.691838679921403, 43.407622000220201 ] } },
{ "type": "Feature", "properties": { "FID": 392, "NAME": "Shell Park East Parking Lot", "ADDRESS": "3307 Lakeshore Rd W", "DESCRIPTIO": "Parking Lot" }, "geometry": { "type": "Point", "coordinates": [ -79.718182107738699, 43.3804748662469 ] } },
{ "type": "Feature", "properties": { "FID": 393, "NAME": "Glen Allen Park Playground", "ADDRESS": "2503 Bridge Rd", "DESCRIPTIO": "Playground" }, "geometry": { "type": "Point", "coordinates": [ -79.722254427869004, 43.3997915628538 ] } },
{ "type": "Feature", "properties": { "FID": 394, "NAME": "Glen Abbey Park Field Hockey Pitch", "ADDRESS": "1415 Third Line", "DESCRIPTIO": "Field Hockey" }, "geometry": { "type": "Point", "coordinates": [ -79.739509061364501, 43.438365655299897 ] } },
{ "type": "Feature", "properties": { "FID": 395, "NAME": "Glen Abbey Green Arena", "ADDRESS": "1415 Third Line", "DESCRIPTIO": "Indoor Arena Pad" }, "geometry": { "type": "Point", "coordinates": [ -79.738522770444007, 43.436376420846798 ] } },
{ "type": "Feature", "properties": { "FID": 396, "NAME": "Neyagawa Park Parking Lot", "ADDRESS": "540 River Glen Blvd", "DESCRIPTIO": "Parking Lot" }, "geometry": { "type": "Point", "coordinates": [ -79.736413695880799, 43.461286146216999 ] } },
{ "type": "Feature", "properties": { "FID": 397, "NAME": "Linbrook Public School Soccer Field 2", "ADDRESS": "1079 Linbrook Dr", "DESCRIPTIO": "Soccer - Mini" }, "geometry": { "type": "Point", "coordinates": [ -79.668733613887099, 43.465082117141101 ] } },
{ "type": "Feature", "properties": { "FID": 398, "NAME": "Lions Valley Park Picnic Area B", "ADDRESS": "1150 Dundas St W", "DESCRIPTIO": "Picnic Area" }, "geometry": { "type": "Point", "coordinates": [ -79.754929019872506, 43.460352675896402 ] } },
{ "type": "Feature", "properties": { "FID": 399, "NAME": "Coronation Park Waterfront Stage", "ADDRESS": "1426 Lakeshore Rd W", "DESCRIPTIO": "Stage" }, "geometry": { "type": "Point", "coordinates": [ -79.693522476644603, 43.407211754933499 ] } },
{ "type": "Feature", "properties": { "FID": 400, "NAME": "Coronation Park Picnic Area - A", "ADDRESS": "1426 Lakeshore Rd W", "DESCRIPTIO": "Picnic Area" }, "geometry": { "type": "Point", "coordinates": [ -79.692240020193793, 43.4089563503139 ] } },
{ "type": "Feature", "properties": { "FID": 401, "NAME": "Pine Glen Soccer Complex", "ADDRESS": "1482- 1520  Pine Glen Rd", "DESCRIPTIO": "Soccer - Major" }, "geometry": { "type": "Point", "coordinates": [ -79.756547387292201, 43.448666375035401 ] } },
{ "type": "Feature", "properties": { "FID": 402, "NAME": "Glenashton Soccer Field 2", "ADDRESS": "2231 Eighth Line", "DESCRIPTIO": "Soccer - Mini" }, "geometry": { "type": "Point", "coordinates": [ -79.703401130006995, 43.489472549312701 ] } },
{ "type": "Feature", "properties": { "FID": 403, "NAME": "Glenashton Park Soccer Field 2", "ADDRESS": "2231 Eighth Line", "DESCRIPTIO": "Soccer - Mini" }, "geometry": { "type": "Point", "coordinates": [ -79.702795986078897, 43.489989943619399 ] } },